UNITID,LONGITUD,INSTNM,ADDR,Kavya_Column,CITY,STABBR,ZIP,Test_Column,LATITUDE,created_by,updated_by,created_at,updated_at
100636,-86.244548,Community College of the Air Force,100 S Turner Blvd,Kavya,Montgomery,AL,36114-3011,,32.406138,Kavya,Kavya,7/6/2016 1:48,7/6/2016 1:48
100654,-86.568502,Alabama A & M University,4900 Meridian Street,Kavya,Normal,AL,35762,,34.783368,Kavya,Kavya,7/6/2016 1:48,7/6/2016 1:48
100663,-86.80917,University of Alabama at Birmingham,Administration Bldg Suite 1070,Kavya,Birmingham,AL,35294-0110,,33.50223,Kavya,Kavya,7/6/2016 1:48,7/6/2016 1:48
100690,-86.17401,Amridge University,1200 Taylor Rd,Kavya,Montgomery,AL,36117-3553,,32.362609,Kavya,Kavya,7/6/2016 1:48,7/6/2016 1:48
100706,-86.63842,University of Alabama in Huntsville,301 Sparkman Dr,Kavya,Huntsville,AL,35899,,34.722818,Kavya,Kavya,7/6/2016 1:48,7/6/2016 1:48
100724,-86.295677,Alabama State University,915 S Jackson Street,Kavya,Montgomery,AL,36104-0271,,32.364317,Kavya,Kavya,7/6/2016 1:48,7/6/2016 1:48
100733,-87.530049,University of Alabama System Office,500 University Blvd. East,Kavya,Tuscaloosa,AL,35401,,33.206704,Kavya,Kavya,7/6/2016 1:48,7/6/2016 1:48
100751,-87.545766,The University of Alabama,739 University Blvd,Kavya,Tuscaloosa,AL,35487-0166,,33.2144,Kavya,Kavya,7/6/2016 1:48,7/6/2016 1:48
100760,-85.94653,Central Alabama Community College,1675 Cherokee Rd,Kavya,Alexander City,AL,35010,,32.924429,Kavya,Kavya,7/6/2016 1:48,7/6/2016 1:48
100812,-86.96514,Athens State University,300 N Beaty St,Kavya,Athens,AL,35611,,34.805625,Kavya,Kavya,7/6/2016 1:48,7/6/2016 1:48
100830,-86.177351,Auburn University at Montgomery,7440 East Drive,Kavya,Montgomery,AL,36117-3596,,32.369939,Kavya,Kavya,7/6/2016 1:48,7/6/2016 1:48
100858,-85.492409,Auburn University,"Auburn, Alabama",Kavya,Auburn University,AL,36849,,32.600201,Kavya,Kavya,7/6/2016 1:48,7/6/2016 1:48
100937,-86.853636,Birmingham Southern College,900 Arkadelphia Road,Kavya,Birmingham,AL,35254,,33.515453,Kavya,Kavya,7/6/2016 1:48,7/6/2016 1:48
101028,-85.031485,Chattahoochee Valley Community College,2602 College Drive,Kavya,Phenix City,AL,36869,,32.42391,Kavya,Kavya,7/6/2016 1:48,7/6/2016 1:48
101073,-87.023531,Concordia College Alabama,1712 Broad Street,Kavya,Selma,AL,36701,,32.42443,Kavya,Kavya,7/6/2016 1:48,7/6/2016 1:48
101116,-86.216488,South University-Montgomery,5355 Vaughn Rd,Kavya,Montgomery,AL,36116,,32.342684,Kavya,Kavya,7/6/2016 1:48,7/6/2016 1:48
101143,-85.836956,Enterprise State Community College,600 Plaza Drive,Kavya,Enterprise,AL,36330-1300,,31.297496,Kavya,Kavya,7/6/2016 1:48,7/6/2016 1:48
101161,-87.779758,James H Faulkner State Community College,1900 US Hwy 31 S,Kavya,Bay Minette,AL,36507-2698,,30.852045,Kavya,Kavya,7/6/2016 1:48,7/6/2016 1:48
101189,-86.21641,Faulkner University,5345 Atlanta Hwy,Kavya,Montgomery,AL,36109-3390,,32.384181,Kavya,Kavya,7/6/2016 1:48,7/6/2016 1:48
101240,-85.991299,Gadsden State Community College,1001 George Wallace Dr,Kavya,Gadsden,AL,35903,,33.991866,Kavya,Kavya,7/6/2016 1:48,7/6/2016 1:48
101277,-86.196979,New Beginning College of Cosmetology,421 Martling Road,Kavya,Albertville,AL,35951,,34.278124,Kavya,Kavya,7/6/2016 1:48,7/6/2016 1:48
101286,-85.46355,George C Wallace State Community College-Dothan,1141 Wallace Drive,Kavya,Dothan,AL,36303-9234,,31.316086,Kavya,Kavya,7/6/2016 1:48,7/6/2016 1:48
101295,-86.781745,George C Wallace State Community College-Hanceville,801 Main St NW,Kavya,Hanceville,AL,35077-2000,,34.07341,Kavya,Kavya,7/6/2016 1:48,7/6/2016 1:48
101301,-87.01324,George C Wallace State Community College-Selma,3000 Earl Goodwin Parkway,Kavya,Selma,AL,36703-2808,,32.445611,Kavya,Kavya,7/6/2016 1:48,7/6/2016 1:48
101365,-86.832299,Herzing University-Birmingham,280 West Valley Ave,Kavya,Birmingham,AL,35209,,33.468105,Kavya,Kavya,7/6/2016 1:48,7/6/2016 1:48
101435,-86.285313,Huntingdon College,1500 East Fairview Avenue,Kavya,Montgomery,AL,36106-2148,,32.350939,Kavya,Kavya,7/6/2016 1:48,7/6/2016 1:48
101453,-87.662062,Heritage Christian University,3625 Helton Dr,Kavya,Florence,AL,35630-9977,,34.859089,Kavya,Kavya,7/6/2016 1:48,7/6/2016 1:48
101462,-86.573817,J F Drake State Community and Technical College,3421 Meridian St N,Kavya,Huntsville,AL,35811,,34.772116,Kavya,Kavya,7/6/2016 1:48,7/6/2016 1:48
101471,-86.392369,J F Ingram State Technical College,5375 Ingram Rd,Kavya,Deatsville,AL,36022,,32.582312,Kavya,Kavya,7/6/2016 1:48,7/6/2016 1:48
101480,-85.766644,Jacksonville State University,700 Pelham Road North,Kavya,Jacksonville,AL,36265,,33.822128,Kavya,Kavya,7/6/2016 1:48,7/6/2016 1:48
101499,-87.085829,Jefferson Davis Community College,220 Alco Dr,Kavya,Brewton,AL,36426,,31.101995,Kavya,Kavya,7/6/2016 1:48,7/6/2016 1:48
101505,-86.707387,Jefferson State Community College,2601 Carson Rd,Kavya,Birmingham,AL,35215-3098,,33.652439,Kavya,Kavya,7/6/2016 1:48,7/6/2016 1:48
101514,-86.949131,John C Calhoun State Community College,6250 U S Highway 31 N,Kavya,Tanner,AL,35671,,34.65428,Kavya,Kavya,7/6/2016 1:48,7/6/2016 1:48
101541,-87.316127,Judson College,302 Bibb St,Kavya,Marion,AL,36756,,32.630526,Kavya,Kavya,7/6/2016 1:48,7/6/2016 1:48
101569,-86.890234,Lawson State Community College-Birmingham Campus,3060 Wilson Rd SW,Kavya,Birmingham,AL,35221-1717,,33.451673,Kavya,Kavya,7/6/2016 1:48,7/6/2016 1:48
101587,-88.186077,University of West Alabama,Station One,Kavya,Livingston,AL,35470,,32.59244,Kavya,Kavya,7/6/2016 1:48,7/6/2016 1:48
101602,-86.452262,Lurleen B Wallace Community College,1000 Dannelly Blvd.,Kavya,Andalusia,AL,36420-1418,,31.322947,Kavya,Kavya,7/6/2016 1:48,7/6/2016 1:48
101648,-87.317998,Marion Military Institute,1101 Washington St,Kavya,Marion,AL,36756-3207,,32.622359,Kavya,Kavya,7/6/2016 1:48,7/6/2016 1:48
101675,-86.908605,Miles College,5500 Myron Massey Blvd,Kavya,Fairfield,AL,35064-2621,,33.481306,Kavya,Kavya,7/6/2016 1:48,7/6/2016 1:48
101693,-88.128934,University of Mobile,5735 College Parkway Drive,Kavya,Mobile,AL,36613-2842,,30.793247,Kavya,Kavya,7/6/2016 1:48,7/6/2016 1:48
101709,-86.865099,University of Montevallo,Station 6001,Kavya,Montevallo,AL,35115-6000,,33.10625,Kavya,Kavya,7/6/2016 1:48,7/6/2016 1:48
101736,-87.67733,Northwest-Shoals Community College,800 George Wallace Blvd,Kavya,Muscle Shoals,AL,35661,,34.739567,Kavya,Kavya,7/6/2016 1:48,7/6/2016 1:48
101879,-87.680999,University of North Alabama,One Harrison Plaza,Kavya,Florence,AL,35632-0001,,34.80658,Kavya,Kavya,7/6/2016 1:48,7/6/2016 1:48
101897,-85.911664,Northeast Alabama Community College,138  Highway 35,Kavya,Rainsville,AL,35986,,34.545471,Kavya,Kavya,7/6/2016 1:48,7/6/2016 1:48
101912,-86.661628,Oakwood University,7000 Adventist Blvd NW,Kavya,Huntsville,AL,35896,,34.756628,Kavya,Kavya,7/6/2016 1:48,7/6/2016 1:48
101949,-87.326352,Alabama Southern Community College,2800 South Alabama Avenue,Kavya,Monroeville,AL,36460,,31.488925,Kavya,Kavya,7/6/2016 1:48,7/6/2016 1:48
101958,-86.162213,Prince Institute-Southeast,7735 Atlanta Hwy,Kavya,Montgomery,AL,36117,,32.383091,Kavya,Kavya,7/6/2016 1:48,7/6/2016 1:48
101994,-86.964486,Reid State Technical College,I65 and Hwy 83,Kavya,Evergreen,AL,36401,,31.46071,Kavya,Kavya,7/6/2016 1:48,7/6/2016 1:48
102030,-88.056982,Bishop State Community College,351 North Broad Street,Kavya,Mobile,AL,36603-5898,,30.693972,Kavya,Kavya,7/6/2016 1:48,7/6/2016 1:48
102049,-86.790932,Samford University,800 Lakeshore Drive,Kavya,Birmingham,AL,35229-2240,,33.464578,Kavya,Kavya,7/6/2016 1:48,7/6/2016 1:48
102058,-87.033826,Selma University,"1501 Lapsley St, Dinkins Hall",Kavya,Selma,AL,36701,,32.420358,Kavya,Kavya,7/6/2016 1:48,7/6/2016 1:48
102067,-87.56148,Shelton State Community College,9500 Old Greensboro Rd,Kavya,Tuscaloosa,AL,35405-8522,,33.120531,Kavya,Kavya,7/6/2016 1:48,7/6/2016 1:48
102076,-86.169483,Snead State Community College,102 Elder Street,Kavya,Boaz,AL,35957-0734,,34.200648,Kavya,Kavya,7/6/2016 1:48,7/6/2016 1:48
102094,-88.18189,University of South Alabama,307 N University Blvd,Kavya,Mobile,AL,36688-0002,,30.695081,Kavya,Kavya,7/6/2016 1:48,7/6/2016 1:48
102234,-88.138199,Spring Hill College,4000 Dauphin St,Kavya,Mobile,AL,36608-1791,,30.694751,Kavya,Kavya,7/6/2016 1:48,7/6/2016 1:48
102261,-86.749045,Southeastern Bible College,2545 Valleydale Road,Kavya,Birmingham,AL,35244-2083,,33.378935,Kavya,Kavya,7/6/2016 1:48,7/6/2016 1:48
102270,-87.585242,Stillman College,3601 Stillman Boulevard,Kavya,Tuscaloosa,AL,35403,,33.199228,Kavya,Kavya,7/6/2016 1:48,7/6/2016 1:48
102298,-86.113675,Talladega College,627 W Battle St,Kavya,Talladega,AL,35160,,33.434258,Kavya,Kavya,7/6/2016 1:48,7/6/2016 1:48
102313,-86.343057,H Councill Trenholm State Technical College,1225 Air Base Blvd,Kavya,Montgomery,AL,36108-3199,,32.350109,Kavya,Kavya,7/6/2016 1:48,7/6/2016 1:48
102368,-85.950191,Troy University,University Avenue,Kavya,Troy,AL,36082-0001,,31.800128,Kavya,Kavya,7/6/2016 1:48,7/6/2016 1:48
102377,-85.710315,Tuskegee University,"Kresge Center, 3rd Floor",Kavya,Tuskegee,AL,36088-1920,,32.431021,Kavya,Kavya,7/6/2016 1:48,7/6/2016 1:48
102395,-87.91163,United States Sports Academy,One Academy Drive,Kavya,Daphne,AL,36526-7055,,30.639329,Kavya,Kavya,7/6/2016 1:48,7/6/2016 1:48
102429,-87.265034,Bevill State Community College,1411 Indiana Avenue,Kavya,Jasper,AL,35501,,33.835785,Kavya,Kavya,7/6/2016 1:48,7/6/2016 1:48
102553,-149.826135,University of Alaska Anchorage,3211 Providence Drive,Kavya,Anchorage,AK,99508,,61.189554,Kavya,Kavya,7/6/2016 1:48,7/6/2016 1:48
102580,-149.111341,Alaska Bible College,248 E Elmwood,Kavya,Palmer,AK,99645,,61.59843,Kavya,Kavya,7/6/2016 1:48,7/6/2016 1:48
102614,-147.824751,University of Alaska Fairbanks,505 South Chandalar Drive,Kavya,Fairbanks,AK,99775-7500,,64.857053,Kavya,Kavya,7/6/2016 1:48,7/6/2016 1:48
102632,-134.636346,University of Alaska Southeast,11120 Glacier Highway,Kavya,Juneau,AK,99801-8697,,58.38427,Kavya,Kavya,7/6/2016 1:48,7/6/2016 1:48
102669,-149.804242,Alaska Pacific University,4101 University Dr,Kavya,Anchorage,AK,99508,,61.191235,Kavya,Kavya,7/6/2016 1:48,7/6/2016 1:48
102711,-149.444573,AVTEC-Alaska's Institute of Technology,809 Second Avenue,Kavya,Seward,AK,99664-0889,,60.110727,Kavya,Kavya,7/6/2016 1:48,7/6/2016 1:48
102845,-149.840178,Charter College-Anchorage,2221 E Northern Lights Blvd Ste 120,Kavya,Anchorage,AK,99508,,61.195786,Kavya,Kavya,7/6/2016 1:48,7/6/2016 1:48
103361,-146.17799,Prince William Sound Community College,,Kavya,,AK,,,61.122364,Kavya,Kavya,7/6/2016 1:48,7/6/2016 1:48
103501,-149.856954,Alaska Career College,1415 E Tudor Road,Kavya,Anchorage,AK,99507-1033,,61.181443,Kavya,Kavya,7/6/2016 1:48,7/6/2016 1:48
103529,-147.82863,University of Alaska System of Higher Education,"910 Yukon Drive, Suite 202 Butrovich Building",Kavya,Fairbanks,AK,99775-5000,,64.858626,Kavya,Kavya,7/6/2016 1:48,7/6/2016 1:48
103644,-112.113845,Everest College-Phoenix,"10400 N. 25th Avenue, Suite 190",Kavya,Phoenix,AZ,85021-1641,,33.580985,Kavya,Kavya,7/6/2016 1:48,7/6/2016 1:48
103723,-111.98646,Collins College,4750 S 44th Place,Kavya,Phoenix,AZ,85040,,33.40334,Kavya,Kavya,7/6/2016 1:48,7/6/2016 1:48
103732,-111.976357,Empire Beauty School-Paradise Valley,12827 N Tatum Blvd,Kavya,Phoenix,AZ,85032,,33.602593,Kavya,Kavya,7/6/2016 1:48,7/6/2016 1:48
103741,-110.927187,Empire Beauty School-Tucson,3030 E Speedway Blvd,Kavya,Tucson,AZ,85716,,32.235657,Kavya,Kavya,7/6/2016 1:48,7/6/2016 1:48
103778,-112.180861,Thunderbird School of Global Management,1 Global Place,Kavya,Glendale,AZ,85306-6000,,33.620887,Kavya,Kavya,7/6/2016 1:48,7/6/2016 1:48
103787,-112.092247,American Indian College Inc,10020 N 15th Ave,Kavya,Phoenix,AZ,85021,,33.577738,Kavya,Kavya,7/6/2016 1:48,7/6/2016 1:48
103811,-112.175304,American Institute of Technology,440 S 54th Avenue,Kavya,Phoenix,AZ,85043-4729,,33.442262,Kavya,Kavya,7/6/2016 1:48,7/6/2016 1:48
103893,-112.115546,Carrington College-Phoenix,8503 N 27th Ave.,Kavya,Phoenix,AZ,85051-4063,,33.560821,Kavya,Kavya,7/6/2016 1:48,7/6/2016 1:48
103909,-111.855281,Carrington College-Mesa,"1001 Southern Ave., Ste. 130",Kavya,Mesa,AZ,85210,,33.39207,Kavya,Kavya,7/6/2016 1:48,7/6/2016 1:48
103927,-110.982989,Carrington College-Tucson,"201 N. Bonita Ave., Suite 101",Kavya,Tucson,AZ,85745,,32.222761,Kavya,Kavya,7/6/2016 1:48,7/6/2016 1:48
103945,-111.661638,CollegeAmerica-Flagstaff,399 Malpais,Kavya,Flagstaff,AZ,86001,,35.201494,Kavya,Kavya,7/6/2016 1:48,7/6/2016 1:48
103954,-110.872305,Arizona Academy of Beauty-East,5631 E Speedway Blvd,Kavya,Tucson,AZ,85712,,32.237253,Kavya,Kavya,7/6/2016 1:48,7/6/2016 1:48
103963,-112.157344,Arizona Automotive Institute,6829 N 46th Ave,Kavya,Glendale,AZ,85301-3579,,33.537249,Kavya,Kavya,7/6/2016 1:48,7/6/2016 1:48
104090,-112.15007,Brookline College-Phoenix,"2445 W. Dunlap Ave., Ste. 100",Kavya,Phoenix,AZ,85021,,33.525384,Kavya,Kavya,7/6/2016 1:48,7/6/2016 1:48
104151,-111.940011,Arizona State University-Tempe,University Drive and Mill Avenue,Kavya,Tempe,AZ,85287,,33.421922,Kavya,Kavya,7/6/2016 1:48,7/6/2016 1:48
104160,-114.495968,Arizona Western College,2020 S. Avenue 8E,Kavya,Yuma,AZ,85365-8834,,32.689306,Kavya,Kavya,7/6/2016 1:48,7/6/2016 1:48
104179,-110.950769,University of Arizona,1401 E University,Kavya,Tucson,AZ,85721-0066,,32.232071,Kavya,Kavya,7/6/2016 1:48,7/6/2016 1:48
104188,-110.927321,Southwest University of Visual Arts-Tucson,2525 N Country Club Rd,Kavya,Tucson,AZ,85716,,32.252384,Kavya,Kavya,7/6/2016 1:48,7/6/2016 1:48
104346,-111.652501,Central Arizona College,8470 N Overfield Rd,Kavya,Coolidge,AZ,85128-9030,,32.957092,Kavya,Kavya,7/6/2016 1:48,7/6/2016 1:48
104364,-110.895086,Brown Mackie College-Tucson,4585 E Speedway Blvd.,Kavya,Tucson,AZ,85712,,32.236736,Kavya,Kavya,7/6/2016 1:48,7/6/2016 1:48
104391,-114.328134,Charles of Italy Beauty College,"1987 McCulloch Blvd, Suite 205",Kavya,Lake Havasu City,AZ,86403,,34.475275,Kavya,Kavya,7/6/2016 1:48,7/6/2016 1:48
104425,-109.690422,Cochise County Community College District,4190 W Highway 80,Kavya,Douglas,AZ,85607-6190,,31.365757,Kavya,Kavya,7/6/2016 1:48,7/6/2016 1:48
104434,-111.625936,Empire Beauty School-Flagstaff,1790 E Rte 66,Kavya,Flagstaff,AZ,86004,,35.197151,Kavya,Kavya,7/6/2016 1:48,7/6/2016 1:48
104443,-111.860423,Empire Beauty School-Chandler,2978 N Alma School Rd #1-3,Kavya,Chandler,AZ,85224,,33.347586,Kavya,Kavya,7/6/2016 1:48,7/6/2016 1:48
104504,-110.856785,Cortiva Institute-Tucson,"6390 E. Broadway, Suite 100",Kavya,Tucson,AZ,85710,,32.21901,Kavya,Kavya,7/6/2016 1:48,7/6/2016 1:48
104568,-111.858305,Avalon School of Cosmetology-Mesa,2111 S Alma School Rd Ste 21,Kavya,Mesa,AZ,85210,,33.376583,Kavya,Kavya,7/6/2016 1:48,7/6/2016 1:48
104577,-109.761664,Eastern Arizona College,615 N. Stadium Ave.,Kavya,Thatcher,AZ,85552-0769,,32.840719,Kavya,Kavya,7/6/2016 1:48,7/6/2016 1:48
104586,-112.452285,Embry-Riddle Aeronautical University-Prescott,3700 Willow Creek Road,Kavya,Prescott,AZ,86301-3720,,34.615678,Kavya,Kavya,7/6/2016 1:48,7/6/2016 1:48
104665,-111.846477,Frank Lloyd Wright School of Architecture,Taliesin West,Kavya,Scottsdale,AZ,85261-4430,,33.60715,Kavya,Kavya,7/6/2016 1:48,7/6/2016 1:48
104708,-112.188334,Glendale Community College,6000 W Olive Ave,Kavya,Glendale,AZ,85302,,33.567483,Kavya,Kavya,7/6/2016 1:48,7/6/2016 1:48
104717,-112.129917,Grand Canyon University,3300 W Camelback Rd,Kavya,Phoenix,AZ,85017,,33.512172,Kavya,Kavya,7/6/2016 1:48,7/6/2016 1:48
104805,-112.050186,Anthem College-Phoenix,1515 E Indian School Road,Kavya,Phoenix,AZ,85014,,33.494316,Kavya,Kavya,7/6/2016 1:48,7/6/2016 1:48
104911,-111.862674,International Academy of Hair Design,1445 W Southern Ave #2006,Kavya,Mesa,AZ,85202-4887,,33.392961,Kavya,Kavya,7/6/2016 1:48,7/6/2016 1:48
105118,-112.118921,Kaplan College-Phoenix,,Kavya,,AZ,,,33.608202,Kavya,Kavya,7/6/2016 1:48,7/6/2016 1:48
105136,-111.975786,Maricopa Community College System Office,2411 W 14th St,Kavya,Tempe,AZ,85281-6942,,33.412915,Kavya,Kavya,7/6/2016 1:48,7/6/2016 1:48
105145,-111.996527,GateWay Community College,108 N. 40th Street,Kavya,Phoenix,AZ,85034,,33.4495,Kavya,Kavya,7/6/2016 1:48,7/6/2016 1:48
105154,-111.871494,Mesa Community College,1833 W Southern Ave,Kavya,Mesa,AZ,85202,,33.391256,Kavya,Kavya,7/6/2016 1:48,7/6/2016 1:48
105163,-110.997501,ITT Technical Institute-Tucson,1455 W. River Rd,Kavya,Tucson,AZ,85704-5829,,32.297261,Kavya,Kavya,7/6/2016 1:48,7/6/2016 1:48
105172,-111.969169,ITT Technical Institute-Tempe,5005 S. Wendler Drive,Kavya,Tempe,AZ,85282,,33.380355,Kavya,Kavya,7/6/2016 1:48,7/6/2016 1:48
105206,-114.030244,Mohave Community College,1971 Jagerson Ave,Kavya,Kingman,AZ,86409-1238,,35.270737,Kavya,Kavya,7/6/2016 1:48,7/6/2016 1:48
105215,-112.121336,Universal Technical Institute of Arizona Inc-Motorcycle Mechanics Institute Division,2844 W Deer Valley Rd,Kavya,Phoenix,AZ,85027,,33.684428,Kavya,Kavya,7/6/2016 1:48,7/6/2016 1:48
105297,-109.21684,Dine College,"Route 12, One Circle Drive",Kavya,Tsaile,AZ,86556,,36.293328,Kavya,Kavya,7/6/2016 1:48,7/6/2016 1:48
105330,-111.657653,Northern Arizona University,"1900 S. Knoles Dr, Babbitt Administrative Center",Kavya,Flagstaff,AZ,86011-4132,,35.180095,Kavya,Kavya,7/6/2016 1:48,7/6/2016 1:48
105349,-110.1316,Northland Pioneer College,2251 E. Navajo Blvd.,Kavya,Holbrook,AZ,86025-0610,,34.922221,Kavya,Kavya,7/6/2016 1:48,7/6/2016 1:48
105367,-112.112294,Ottawa University-Phoenix,9414 North 25th Avenue,Kavya,Phoenix,AZ,85021,,33.5717,Kavya,Kavya,7/6/2016 1:48,7/6/2016 1:48
105428,-112.088293,Phoenix College,1202 W Thomas Rd,Kavya,Phoenix,AZ,85013,,33.481361,Kavya,Kavya,7/6/2016 1:48,7/6/2016 1:48
105482,-111.908433,Cortiva Institute-Scottsdale,8010 East McDowell Road #214,Kavya,Scottsdale,AZ,85257,,33.466554,Kavya,Kavya,7/6/2016 1:48,7/6/2016 1:48
105516,-111.966271,University of Phoenix-Phoenix Campus,,Kavya,,AZ,,,33.40319,Kavya,Kavya,7/6/2016 1:48,7/6/2016 1:48
105525,-110.887019,Pima Community College,4905C East  Broadway Blvd.,Kavya,Tucson,AZ,85709-1275,,32.221772,Kavya,Kavya,7/6/2016 1:48,7/6/2016 1:48
105534,-110.921306,Pima Medical Institute-Tucson,"3350 East Grant Road, Suite 200",Kavya,Tucson,AZ,85716,,32.250448,Kavya,Kavya,7/6/2016 1:48,7/6/2016 1:48
105543,-106.594451,Pima Medical Institute-Albuquerque,4400 Cutler Avenue NE,Kavya,Albuquerque,NM,87110,,35.10485,Kavya,Kavya,7/6/2016 1:48,7/6/2016 1:48
105589,-112.476509,Prescott College,220 Grove Ave,Kavya,Prescott,AZ,86301,,34.5445,Kavya,Kavya,7/6/2016 1:48,7/6/2016 1:48
105659,-111.989357,Refrigeration School Inc,4210 E Washington Street,Kavya,Phoenix,AZ,85034-1816,,33.448692,Kavya,Kavya,7/6/2016 1:48,7/6/2016 1:48
105668,-111.975201,Rio Salado College,2323 W 14th St,Kavya,Tempe,AZ,85281,,33.413138,Kavya,Kavya,7/6/2016 1:48,7/6/2016 1:48
105677,-112.086161,Roberto-Venn School of Luthiery,1012 NW Grand Ave,Kavya,Phoenix,AZ,85007,,33.45489,Kavya,Kavya,7/6/2016 1:48,7/6/2016 1:48
105701,-109.727696,Hair Academy of Safford,1550 West Thatcher Blvd,Kavya,Safford,AZ,85546,,32.835302,Kavya,Kavya,7/6/2016 1:48,7/6/2016 1:48
105747,-111.887298,Scottsdale Community College,9000 E Chaparral Rd,Kavya,Scottsdale,AZ,85256,,33.509489,Kavya,Kavya,7/6/2016 1:48,7/6/2016 1:48
105792,-112.057515,South Mountain Community College,7050 S 24th St,Kavya,Phoenix,AZ,85042,,33.381001,Kavya,Kavya,7/6/2016 1:48,7/6/2016 1:48
105899,-112.026211,Arizona Christian University,2625 E Cactus Rd,Kavya,Phoenix,AZ,85032-7097,,33.595117,Kavya,Kavya,7/6/2016 1:48,7/6/2016 1:48
105987,-110.883181,Tucson College,"5151 E Broadway Blvd, Ste.155",Kavya,Tucson,AZ,85711,,32.22205,Kavya,Kavya,7/6/2016 1:48,7/6/2016 1:48
106041,-112.289693,Universal Technical Institute of Arizona Inc,10695 West Pierce Street,Kavya,Avondale,AZ,85323,,33.453533,Kavya,Kavya,7/6/2016 1:48,7/6/2016 1:48
106102,-111.96412,Western International University,1601 W Fountainhead Parkway,Kavya,Tempe,AZ,85282,,33.403635,Kavya,Kavya,7/6/2016 1:48,7/6/2016 1:48
106111,-112.118168,Empire Beauty School-NW Phoenix,2727 W. Glendale Ave. #200,Kavya,Glendale,AZ,85051,,33.538093,Kavya,Kavya,7/6/2016 1:48,7/6/2016 1:48
106148,-112.454156,Yavapai College,1100 E Sheldon St,Kavya,Prescott,AZ,86301,,34.547512,Kavya,Kavya,7/6/2016 1:48,7/6/2016 1:48
106245,-92.341835,University of Arkansas at Little Rock,2801 S University Ave,Kavya,Little Rock,AR,72204,,34.726644,Kavya,Kavya,7/6/2016 1:48,7/6/2016 1:48
106263,-92.320945,University of Arkansas for Medical Sciences,4301 W Markham,Kavya,Little Rock,AR,72205-7199,,34.749718,Kavya,Kavya,7/6/2016 1:48,7/6/2016 1:48
106281,-93.080831,ABC Beauty College Inc,203 S 26th Street,Kavya,Arkadelphia,AR,71923,,34.12018,Kavya,Kavya,7/6/2016 1:48,7/6/2016 1:48
106306,-92.290555,Arkansas Baptist College,1621 Dr. Martin Luther King Drive,Kavya,Little Rock,AR,72202-6068,,34.734751,Kavya,Kavya,7/6/2016 1:48,7/6/2016 1:48
106315,-92.334814,Arkansas Beauty School-Little Rock,5108 Baseline Rd,Kavya,Little Rock,AR,72209,,34.669071,Kavya,Kavya,7/6/2016 1:48,7/6/2016 1:48
106324,-93.13522,Arkansas Beauty College,109 N Commerce St,Kavya,Russellville,AR,72801,,35.278622,Kavya,Kavya,7/6/2016 1:48,7/6/2016 1:48
106342,-91.628115,Lyon College,2300 Highland Road,Kavya,Batesville,AR,72501,,35.778934,Kavya,Kavya,7/6/2016 1:48,7/6/2016 1:48
106351,-92.266336,Arkansas College of Barbering and Hair Design,200 E Washington Ave,Kavya,North Little Rock,AR,72114,,34.753621,Kavya,Kavya,7/6/2016 1:48,7/6/2016 1:48
106360,-94.410967,Arthur's Beauty College Inc-Fort Smith,2000 North B St,Kavya,Fort Smith,AR,72901-3342,,35.379955,Kavya,Kavya,7/6/2016 1:48,7/6/2016 1:48
106397,-94.178214,University of Arkansas,Administration Bldg 425,Kavya,Fayetteville,AR,72701,,36.06153,Kavya,Kavya,7/6/2016 1:48,7/6/2016 1:48
106412,-92.021263,University of Arkansas at Pine Bluff,1200 N University Mail Slot 4789,Kavya,Pine Bluff,AR,71601,,34.242192,Kavya,Kavya,7/6/2016 1:48,7/6/2016 1:48
106449,-91.896165,Arkansas State University-Beebe,1000 Iowa Street,Kavya,Beebe,AR,72012-1000,,35.074512,Kavya,Kavya,7/6/2016 1:48,7/6/2016 1:48
106458,-90.680478,Arkansas State University-Main Campus,2105 E. Aggie Road,Kavya,Jonesboro,AR,72401,,35.842779,Kavya,Kavya,7/6/2016 1:48,7/6/2016 1:48
106467,-93.13233,Arkansas Tech University,Administration Bldg 200; 1509 N Boulder Ave,Kavya,Russellville,AR,72801-2222,,35.295227,Kavya,Kavya,7/6/2016 1:48,7/6/2016 1:48
106485,-91.812971,University of Arkansas at Monticello,Highway 425 South,Kavya,Monticello,AR,71656,,33.589788,Kavya,Kavya,7/6/2016 1:48,7/6/2016 1:48
106494,-92.102284,Arthur's Beauty College Inc-Jacksonville,2600 John Harden Dr,Kavya,Jacksonville,AR,72076,,34.8918,Kavya,Kavya,7/6/2016 1:48,7/6/2016 1:48
106546,-92.40692,Baptist Health Schools-Little Rock,11900 Col Glenn Rd Ste 1000,Kavya,Little Rock,AR,72210-2820,,34.713115,Kavya,Kavya,7/6/2016 1:48,7/6/2016 1:48
106625,-90.951033,Black River Technical College,1410 Hwy 304 East,Kavya,Pocahontas,AR,72455,,36.239793,Kavya,Kavya,7/6/2016 1:48,7/6/2016 1:48
106704,-92.45931,University of Central Arkansas,201 Donaghey Ave,Kavya,Conway,AR,72035-0001,,35.078196,Kavya,Kavya,7/6/2016 1:48,7/6/2016 1:48
106713,-92.444102,Central Baptist College,1501 College Avenue,Kavya,Conway,AR,72034,,35.084574,Kavya,Kavya,7/6/2016 1:48,7/6/2016 1:48
106795,-94.3673,Cossatot Community College of the University of Arkansas,183 College Drive,Kavya,De Queen,AR,71832,,34.043389,Kavya,Kavya,7/6/2016 1:48,7/6/2016 1:48
106810,-90.58482,Crowley's Ridge College,100 College Dr,Kavya,Paragould,AR,72450,,36.066239,Kavya,Kavya,7/6/2016 1:48,7/6/2016 1:48
106829,-90.767807,Crowley's Ridge Technical Institute,1620 Newcastle Road,Kavya,Forrest City,AR,72335-0925,,35.041908,Kavya,Kavya,7/6/2016 1:48,7/6/2016 1:48
106883,-90.767445,East Arkansas Community College,1700 Newcastle Rd,Kavya,Forrest City,AR,72335-2204,,35.039673,Kavya,Kavya,7/6/2016 1:48,7/6/2016 1:48
106892,-92.341891,Eastern College of Health Vocations-Little Rock,200 South University Avenue,Kavya,Little Rock,AR,72205,,34.75128,Kavya,Kavya,7/6/2016 1:48,7/6/2016 1:48
106908,-92.221304,Imagine-Paul Mitchell Partner School,4201 E McCain Blvd,Kavya,North Little Rock,AR,72117,,34.791306,Kavya,Kavya,7/6/2016 1:48,7/6/2016 1:48
106980,-93.117111,National Park Community College,101 College Dr,Kavya,Hot Springs,AR,71913,,34.512731,Kavya,Kavya,7/6/2016 1:48,7/6/2016 1:48
106999,-91.616123,University of Arkansas Community College-Batesville,2005 White Drive,Kavya,Batesville,AR,72503-3350,,35.79293,Kavya,Kavya,7/6/2016 1:48,7/6/2016 1:48
107044,-91.729008,Harding University,915 E. Market Ave.,Kavya,Searcy,AR,72143,,35.249605,Kavya,Kavya,7/6/2016 1:48,7/6/2016 1:48
107071,-93.060313,Henderson State University,1100 Henderson Street,Kavya,Arkadelphia,AR,71999-0001,,34.127792,Kavya,Kavya,7/6/2016 1:48,7/6/2016 1:48
107080,-92.442021,Hendrix College,1600 Washington Ave,Kavya,Conway,AR,72032-3080,,35.09972,Kavya,Kavya,7/6/2016 1:48,7/6/2016 1:48
107099,-93.038381,Hot Springs Beauty College,100 Cones Rd,Kavya,Hot Springs,AR,71901,,34.496287,Kavya,Kavya,7/6/2016 1:48,7/6/2016 1:48
107123,-92.018045,Jefferson Regional Medical Center School of Nursing,1600 West 40th St,Kavya,Pine Bluff,AR,71603,,34.187831,Kavya,Kavya,7/6/2016 1:48,7/6/2016 1:48
107141,-94.559088,John Brown University,2000 W University St,Kavya,Siloam Springs,AR,72761,,36.191077,Kavya,Kavya,7/6/2016 1:48,7/6/2016 1:48
107211,-92.296729,Lees School of Cosmetology,2700 W. Pershing Blvd,Kavya,North  Little Rock,AR,72114-3800,,34.781993,Kavya,Kavya,7/6/2016 1:48,7/6/2016 1:48
107220,-94.131834,Career Academy of Hair Design,346 E. Robinson Ave,Kavya,Springdale,AR,72764-7128,,36.16757,Kavya,Kavya,7/6/2016 1:48,7/6/2016 1:48
107275,-92.386019,Marsha Kay Beauty College,,Kavya,,AR,,,36.344658,Kavya,Kavya,7/6/2016 1:48,7/6/2016 1:48
107293,-94.416327,Academy of Salon and Spa,311 S 16th St,Kavya,Fort Smith,AR,72901,,35.380891,Kavya,Kavya,7/6/2016 1:48,7/6/2016 1:48
107318,-90.22285,Mid-South Community College,2000 W.  Broadway,Kavya,West Memphis,AR,72301-3829,,35.145736,Kavya,Kavya,7/6/2016 1:48,7/6/2016 1:48
107327,-89.922491,Arkansas Northeastern College,2501 S Division,Kavya,Blytheville,AR,72316-1109,,35.897362,Kavya,Kavya,7/6/2016 1:48,7/6/2016 1:48
107363,-91.7887,Margaret's Hair Academy Inc,305 East Gaines Street,Kavya,Monticello,AR,71655,,33.629169,Kavya,Kavya,7/6/2016 1:48,7/6/2016 1:48
107442,-92.254108,New Tyler Barber College Inc,1221 E 7th St,Kavya,North Little Rock,AR,72114-4973,,34.759076,Kavya,Kavya,7/6/2016 1:48,7/6/2016 1:48
107460,-93.087317,North Arkansas College,1515 Pioneer Dr,Kavya,Harrison,AR,72601-5508,,36.220528,Kavya,Kavya,7/6/2016 1:48,7/6/2016 1:48
107488,-94.116433,Northwest Technical Institute,709 S Old Missouri Rd,Kavya,Springdale,AR,72764,,36.178617,Kavya,Kavya,7/6/2016 1:48,7/6/2016 1:48
107512,-93.052442,Ouachita Baptist University,410 Ouachita St,Kavya,Arkadelphia,AR,71998-0001,,34.125045,Kavya,Kavya,7/6/2016 1:48,7/6/2016 1:48
107521,-92.821416,College of the Ouachitas,One College Circle,Kavya,Malvern,AR,72104-0816,,34.378745,Kavya,Kavya,7/6/2016 1:48,7/6/2016 1:48
107549,-91.896355,Ozarka College,218 College Dr,Kavya,Melbourne,AR,72556-0010,,36.053031,Kavya,Kavya,7/6/2016 1:48,7/6/2016 1:48
107558,-93.467924,University of the Ozarks,415 N College Ave,Kavya,Clarksville,AR,72830,,35.477785,Kavya,Kavya,7/6/2016 1:48,7/6/2016 1:48
107585,-92.728507,University of Arkansas Community College-Morrilton,1537 University Blvd.,Kavya,Morrilton,AR,72110,,35.172136,Kavya,Kavya,7/6/2016 1:48,7/6/2016 1:48
107600,-92.28242,Philander Smith College,900 W. Daisy Bates Drive,Kavya,Little Rock,AR,72202-3799,,34.73666,Kavya,Kavya,7/6/2016 1:48,7/6/2016 1:48
107619,-90.617745,Phillips Community College of the University of Arkansas,1000 Campus Drive,Kavya,Helena,AR,72342-0785,,34.544976,Kavya,Kavya,7/6/2016 1:48,7/6/2016 1:48
107637,-92.024731,Southeast Arkansas College,1900 Hazel St.,Kavya,Pine Bluff,AR,71603,,34.209797,Kavya,Kavya,7/6/2016 1:48,7/6/2016 1:48
107655,-92.663131,Professional Cosmetology Education Center,460 North Washington,Kavya,El Dorado,AR,71730-4009,,33.215124,Kavya,Kavya,7/6/2016 1:48,7/6/2016 1:48
107664,-92.299729,Pulaski Technical College,3000 W Scenic Dr,Kavya,North Little Rock,AR,72118-3347,,34.78243,Kavya,Kavya,7/6/2016 1:48,7/6/2016 1:48
107725,-93.584528,University of Arkansas Community College-Hope,2500 S Main,Kavya,Hope,AR,71801,,33.64791,Kavya,Kavya,7/6/2016 1:48,7/6/2016 1:48
107743,-94.2197,Rich Mountain Community College,1100 College Dr,Kavya,Mena,AR,71953,,34.590793,Kavya,Kavya,7/6/2016 1:48,7/6/2016 1:48
107789,-94.154447,Paul Mitchell the School-Arkansas,4156 N Steele Blvd,Kavya,Fayetteville,AR,72703,,36.127461,Kavya,Kavya,7/6/2016 1:48,7/6/2016 1:48
107831,-91.73454,Searcy Beauty College Inc,1004 S Main,Kavya,Searcy,AR,72143,,35.237723,Kavya,Kavya,7/6/2016 1:48,7/6/2016 1:48
107840,-92.261331,Shorter College,604 Locust St,Kavya,N Little Rock,AR,72114,,34.75933,Kavya,Kavya,7/6/2016 1:48,7/6/2016 1:48
107877,-90.939876,Williams Baptist College,60 W Fulbright Avenue,Kavya,Walnut Ridge,AR,72476,,36.126825,Kavya,Kavya,7/6/2016 1:48,7/6/2016 1:48
107974,-92.666087,South Arkansas Community College,300 S West Ave,Kavya,El Dorado,AR,71731-7010,,33.209446,Kavya,Kavya,7/6/2016 1:48,7/6/2016 1:48
107983,-93.235087,Southern Arkansas University Main Campus,100 E. University,Kavya,Magnolia,AR,71753,,33.291195,Kavya,Kavya,7/6/2016 1:48,7/6/2016 1:48
107992,-92.719498,Southern Arkansas University Tech,6415 Spellman Road,Kavya,Camden,AR,71701-1906,,33.63037,Kavya,Kavya,7/6/2016 1:48,7/6/2016 1:48
108056,-92.343714,University of Arkansas System Office,2404 N University,Kavya,Little Rock,AR,72207-3608,,34.775989,Kavya,Kavya,7/6/2016 1:48,7/6/2016 1:48
108065,-92.289758,Velvatex College of Beauty Culture,1520 Martin Luther King Dr,Kavya,Little Rock,AR,72202-5452,,34.735724,Kavya,Kavya,7/6/2016 1:48,7/6/2016 1:48
108092,-94.374073,University of Arkansas-Fort Smith,5210 Grand Ave,Kavya,Fort Smith,AR,72913-3649,,35.385345,Kavya,Kavya,7/6/2016 1:48,7/6/2016 1:48
108232,-122.400686,Academy of Art University,79 New Montgomery,Kavya,San Francisco,CA,94105,,37.787748,Kavya,Kavya,7/6/2016 1:48,7/6/2016 1:48
108250,-121.281506,ITT Technical Institute-Rancho Cordova,10863 Gold Center Dr,Kavya,Rancho Cordova,CA,95670-6034,,38.59172,Kavya,Kavya,7/6/2016 1:48,7/6/2016 1:48
108269,-122.270022,Academy of Chinese Culture and Health Sciences,"1600 Broadway, Ste. 200",Kavya,Oakland,CA,94612,,37.806143,Kavya,Kavya,7/6/2016 1:48,7/6/2016 1:48
108348,-117.987666,The Academy of Radio and TV Broadcasting,16052 Beach Blvd St 263n,Kavya,Huntington Beach,CA,92647,,33.728895,Kavya,Kavya,7/6/2016 1:48,7/6/2016 1:48
108649,-122.243566,Avalon School of Cosmetology-Alameda,2318 Central Avenue,Kavya,Alameda,CA,94501,,37.764203,Kavya,Kavya,7/6/2016 1:48,7/6/2016 1:48
108667,-122.279261,College of Alameda,555 Ralph Appezzato Memorial Pky,Kavya,Alameda,CA,94501,,37.78239,Kavya,Kavya,7/6/2016 1:48,7/6/2016 1:48
108807,-120.421486,Allan Hancock College,800 South College Drive,Kavya,Santa Maria,CA,93454-6399,,34.942979,Kavya,Kavya,7/6/2016 1:48,7/6/2016 1:48
108852,-118.344097,American Academy of Dramatic Arts-Los Angeles,1336 N La Brea,Kavya,Los Angeles,CA,90028,,34.095315,Kavya,Kavya,7/6/2016 1:48,7/6/2016 1:48
108861,-122.256149,American Baptist Seminary of the West,2606 Dwight Way,Kavya,Berkeley,CA,94704-3029,,37.865252,Kavya,Kavya,7/6/2016 1:48,7/6/2016 1:48
108870,-118.309989,American Film Institute Conservatory,2021 N Western Ave,Kavya,Los Angeles,CA,90027-1625,,34.10846,Kavya,Kavya,7/6/2016 1:48,7/6/2016 1:48
108977,-118.125036,American Beauty College,646 S. Sunset Ave,Kavya,West Covina,CA,91790,,33.884391,Kavya,Kavya,7/6/2016 1:48,7/6/2016 1:48
109040,-118.292282,American Career College-Los Angeles,4021 Rosewood Avenue,Kavya,Los Angeles,CA,90004,,34.079236,Kavya,Kavya,7/6/2016 1:48,7/6/2016 1:48
109086,-122.404945,American Conservatory Theater,30 Grant Ave,Kavya,San Francisco,CA,94108-5834,,37.787326,Kavya,Kavya,7/6/2016 1:48,7/6/2016 1:48
109208,-121.346012,American River College,4700 College Oak Dr,Kavya,Sacramento,CA,95841-4286,,38.649734,Kavya,Kavya,7/6/2016 1:48,7/6/2016 1:48
109350,-118.186166,Antelope Valley College,3041 West  Ave K,Kavya,Lancaster,CA,93536-5426,,34.676207,Kavya,Kavya,7/6/2016 1:48,7/6/2016 1:48
109651,-118.186901,Art Center College of Design,1700 Lida St,Kavya,Pasadena,CA,91103,,34.170844,Kavya,Kavya,7/6/2016 1:48,7/6/2016 1:48
109721,-118.27243,Associated Technical College-Los Angeles,1670 Wilshire Blvd,Kavya,Los Angeles,CA,90017-1604,,34.055987,Kavya,Kavya,7/6/2016 1:48,7/6/2016 1:48
109730,-117.158203,Associated Technical College-San Diego,707 Broadway-Ste 300,Kavya,San Diego,CA,92101,,32.715658,Kavya,Kavya,7/6/2016 1:48,7/6/2016 1:48
109785,-117.88795,Azusa Pacific University,901 E Alosta,Kavya,Azusa,CA,91702-7000,,34.130865,Kavya,Kavya,7/6/2016 1:48,7/6/2016 1:48
109819,-118.973491,Bakersfield College,1801 Panorama Dr,Kavya,Bakersfield,CA,93305-1299,,35.4108,Kavya,Kavya,7/6/2016 1:48,7/6/2016 1:48
109907,-117.02523,Barstow Community College,2700 Barstow Road,Kavya,Barstow,CA,92311,,34.871451,Kavya,Kavya,7/6/2016 1:48,7/6/2016 1:48
109934,-117.090235,Bellus Academy-National City,1520 East Plaza Blvd,Kavya,National City,CA,91950,,32.676762,Kavya,Kavya,7/6/2016 1:48,7/6/2016 1:48
110060,-117.941323,Bethesda University,730 N. Euclid St,Kavya,Anaheim,CA,92801,,33.842295,Kavya,Kavya,7/6/2016 1:48,7/6/2016 1:48
110097,-118.017342,Biola University,13800 Biola Ave,Kavya,La Mirada,CA,90639-0001,,33.904823,Kavya,Kavya,7/6/2016 1:48,7/6/2016 1:48
110185,-119.294152,Brooks Institute,5301 N. Ventura Ave,Kavya,Ventura,CA,93101,,34.338173,Kavya,Kavya,7/6/2016 1:48,7/6/2016 1:48
110194,-117.906409,Brownson Technical School,1110 Technology Cir Ste D,Kavya,Anaheim,CA,92805,,33.819,Kavya,Kavya,7/6/2016 1:48,7/6/2016 1:48
110219,-118.302882,Bryan University,3580 Wilshire blvd suite 400,Kavya,Los Angeles,CA,90010,,34.061406,Kavya,Kavya,7/6/2016 1:48,7/6/2016 1:48
110246,-121.644691,Butte College,3536 Butte Campus Drive,Kavya,Oroville,CA,95965-8399,,39.649116,Kavya,Kavya,7/6/2016 1:48,7/6/2016 1:48
110307,-118.567621,Phillips Graduate Institute,19900 Plummer Street,Kavya,Chatsworth,CA,91311,,34.24202,Kavya,Kavya,7/6/2016 1:48,7/6/2016 1:48
110316,-122.416537,California Institute of Integral Studies,1453 Mission Street,Kavya,San Francisco,CA,94103,,37.774768,Kavya,Kavya,7/6/2016 1:48,7/6/2016 1:48
110334,-121.927926,Cabrillo College,6500 Soquel Dr,Kavya,Aptos,CA,95003,,36.9891,Kavya,Kavya,7/6/2016 1:48,7/6/2016 1:48
110361,-117.42587,California Baptist University,8432 Magnolia Ave,Kavya,Riverside,CA,92504-3297,,33.928569,Kavya,Kavya,7/6/2016 1:48,7/6/2016 1:48
110370,-122.400263,California College of the Arts,1111 Eighth Street,Kavya,San Francisco,CA,94107-2247,,37.767266,Kavya,Kavya,7/6/2016 1:48,7/6/2016 1:48
110398,-122.415395,University of California-Hastings College of Law,200 McAllister St,Kavya,San Francisco,CA,94102-4978,,37.780718,Kavya,Kavya,7/6/2016 1:48,7/6/2016 1:48
110404,-118.12574,California Institute of Technology,1200 E California Blvd,Kavya,Pasadena,CA,91125,,34.139275,Kavya,Kavya,7/6/2016 1:48,7/6/2016 1:48
110413,-118.879467,California Lutheran University,60 W Olsen Rd,Kavya,Thousand Oaks,CA,91360-2787,,34.225551,Kavya,Kavya,7/6/2016 1:48,7/6/2016 1:48
110422,-120.65856,California Polytechnic State University-San Luis Obispo,1 Grand Ave.,Kavya,San Luis Obispo,CA,93407,,35.29889,Kavya,Kavya,7/6/2016 1:48,7/6/2016 1:48
110468,-117.094398,Alliant International University-San Diego,10455 Pomerado Road,Kavya,San Diego,CA,92131,,32.897056,Kavya,Kavya,7/6/2016 1:48,7/6/2016 1:48
110486,-119.104711,California State University-Bakersfield,9001 Stockdale Hwy,Kavya,Bakersfield,CA,93311-1099,,35.350005,Kavya,Kavya,7/6/2016 1:48,7/6/2016 1:48
110495,-120.852511,California State University-Stanislaus,One University Circle,Kavya,Turlock,CA,95382-0299,,37.52577,Kavya,Kavya,7/6/2016 1:48,7/6/2016 1:48
110501,-118.201255,California State University-Chancellors Office,"Analytic Studies 401 Golden Shore, 6th Floor",Kavya,Long Beach,CA,90802-4210,,33.764338,Kavya,Kavya,7/6/2016 1:48,7/6/2016 1:48
110510,-117.322508,California State University-San Bernardino,5500 University Pky,Kavya,San Bernardino,CA,92407-2397,,34.182987,Kavya,Kavya,7/6/2016 1:48,7/6/2016 1:48
110529,-117.819019,California State Polytechnic University-Pomona,3801 West Temple Avenue,Kavya,Pomona,CA,91768,,34.054273,Kavya,Kavya,7/6/2016 1:48,7/6/2016 1:48
110538,-121.846333,California State University-Chico,First and Normal Sts,Kavya,Chico,CA,95929-0150,,39.728003,Kavya,Kavya,7/6/2016 1:48,7/6/2016 1:48
110547,-118.259316,California State University-Dominguez Hills,1000 E Victoria St,Kavya,Carson,CA,90747-0005,,33.86524,Kavya,Kavya,7/6/2016 1:48,7/6/2016 1:48
110556,-119.748258,California State University-Fresno,5241 N Maple Ave,Kavya,Fresno,CA,93740,,36.814477,Kavya,Kavya,7/6/2016 1:48,7/6/2016 1:48
110565,-117.885349,California State University-Fullerton,800 N State College Blvd,Kavya,Fullerton,CA,92831-3599,,33.883627,Kavya,Kavya,7/6/2016 1:48,7/6/2016 1:48
110574,-122.058073,California State University-East Bay,25800 Carlos Bee Blvd,Kavya,Hayward,CA,94542,,37.65707,Kavya,Kavya,7/6/2016 1:48,7/6/2016 1:48
110583,-118.1123,California State University-Long Beach,1250 Bellflower Blvd,Kavya,Long Beach,CA,90840-0115,,33.782752,Kavya,Kavya,7/6/2016 1:48,7/6/2016 1:48
110592,-118.168965,California State University-Los Angeles,5151 State University Dr,Kavya,Los Angeles,CA,90032,,34.066927,Kavya,Kavya,7/6/2016 1:48,7/6/2016 1:48
110608,-118.526817,California State University-Northridge,18111 Nordhoff St,Kavya,Northridge,CA,91330,,34.23671,Kavya,Kavya,7/6/2016 1:48,7/6/2016 1:48
110617,-121.42194,California State University-Sacramento,6000 J St,Kavya,Sacramento,CA,95819-2694,,38.55745,Kavya,Kavya,7/6/2016 1:48,7/6/2016 1:48
110635,-122.260401,University of California-Berkeley,200 California Hall,Kavya,Berkeley,CA,94720,,37.871519,Kavya,Kavya,7/6/2016 1:48,7/6/2016 1:48
110644,-121.751958,University of California-Davis,One Shields Avenue,Kavya,Davis,CA,95616-8678,,38.539895,Kavya,Kavya,7/6/2016 1:48,7/6/2016 1:48
110653,-117.841248,University of California-Irvine,501 Aldrich Hall,Kavya,Irvine,CA,92697,,33.648434,Kavya,Kavya,7/6/2016 1:48,7/6/2016 1:48
110662,-118.443901,University of California-Los Angeles,405 Hilgard Ave,Kavya,Los Angeles,CA,90095-1405,,34.068892,Kavya,Kavya,7/6/2016 1:48,7/6/2016 1:48
110671,-117.331098,University of California-Riverside,900 University Ave,Kavya,Riverside,CA,92521,,33.97588,Kavya,Kavya,7/6/2016 1:48,7/6/2016 1:48
110680,-117.237793,University of California-San Diego,9500 Gilman Dr,Kavya,La Jolla,CA,92093,,32.876598,Kavya,Kavya,7/6/2016 1:48,7/6/2016 1:48
110699,-122.458049,University of California-San Francisco,500 Parnassus Ave,Kavya,San Francisco,CA,94143-0244,,37.762736,Kavya,Kavya,7/6/2016 1:48,7/6/2016 1:48
110705,-119.848031,University of California-Santa Barbara,5221 Cheadle Hall,Kavya,Santa Barbara,CA,93106,,34.415402,Kavya,Kavya,7/6/2016 1:48,7/6/2016 1:48
110714,-122.067993,University of California-Santa Cruz,1156 High St,Kavya,Santa Cruz,CA,95064-1011,,36.997258,Kavya,Kavya,7/6/2016 1:48,7/6/2016 1:48
110778,-122.10866,Sofia University,1069 East Meadow Cr,Kavya,Palo Alto,CA,94303,,37.430325,Kavya,Kavya,7/6/2016 1:48,7/6/2016 1:48
110875,-120.99689,California Beauty School,1115 15th St,Kavya,Modesto,CA,95354,,37.645217,Kavya,Kavya,7/6/2016 1:48,7/6/2016 1:48
110918,-119.732752,California Christian College,4881 E University Ave,Kavya,Fresno,CA,93703-3599,,36.767596,Kavya,Kavya,7/6/2016 1:48,7/6/2016 1:48
110945,-117.167121,California College San Diego,6602 Convoy Court Ste 100,Kavya,San Diego,CA,92111-1009,,32.83529,Kavya,Kavya,7/6/2016 1:48,7/6/2016 1:48
111009,-122.402643,Le Cordon Bleu College of Culinary Arts-San Francisco,350 Rhode Island Street,Kavya,San Francisco,CA,94103,,37.765415,Kavya,Kavya,7/6/2016 1:48,7/6/2016 1:48
111054,-117.024261,California Hair Design Academy,"8011 University Avenue, Suite A-2",Kavya,La Mesa,CA,91941-5055,,32.765221,Kavya,Kavya,7/6/2016 1:48,7/6/2016 1:48
111081,-118.567303,California Institute of the Arts,24700 W McBean Pky,Kavya,Valencia,CA,91355-2397,,34.393337,Kavya,Kavya,7/6/2016 1:48,7/6/2016 1:48
111188,-122.231551,The California Maritime Academy,200 Maritime Academy Dr,Kavya,Vallejo,CA,94590,,38.069061,Kavya,Kavya,7/6/2016 1:48,7/6/2016 1:48
111391,-117.162597,California Western School of Law,225 Cedar St,Kavya,San Diego,CA,92101-3046,,32.72194,Kavya,Kavya,7/6/2016 1:48,7/6/2016 1:48
111434,-122.265549,Canada College,4200 Farm Hill Blvd.,Kavya,Redwood City,CA,94061-1099,,37.447365,Kavya,Kavya,7/6/2016 1:48,7/6/2016 1:48
111461,-118.569524,College of the Canyons,26455 Rockwell Canyon Rd,Kavya,Santa Clarita,CA,91355-1899,,34.403121,Kavya,Kavya,7/6/2016 1:48,7/6/2016 1:48
111513,-118.031697,Career Academy of Beauty,12471 Valley View,Kavya,Garden Grove,CA,92845,,33.781018,Kavya,Kavya,7/6/2016 1:48,7/6/2016 1:48
111638,-118.448335,Casa Loma College-Van Nuys,6725 Kester Ave,Kavya,Van Nuys,CA,91405,,34.195438,Kavya,Kavya,7/6/2016 1:48,7/6/2016 1:48
111708,-117.122496,CET-San Diego,4153 Market Street,Kavya,San Diego,CA,92102,,32.711715,Kavya,Kavya,7/6/2016 1:48,7/6/2016 1:48
111717,-121.88698,CET-Sobrato,701 Vine St,Kavya,San Jose,CA,95110,,37.322723,Kavya,Kavya,7/6/2016 1:48,7/6/2016 1:48
111726,-115.549079,CET-El Centro,294 S 3rd St,Kavya,El Centro,CA,92243,,32.790908,Kavya,Kavya,7/6/2016 1:48,7/6/2016 1:48
111744,-117.268738,CET-San Bernardino,1430 Cooley Court,Kavya,San Bernardino,CA,92408,,34.075136,Kavya,Kavya,7/6/2016 1:48,7/6/2016 1:48
111762,-121.767991,CET-Watsonville,10 Blanca Lane,Kavya,Watsonville,CA,95076,,36.931833,Kavya,Kavya,7/6/2016 1:48,7/6/2016 1:48
111771,-121.561429,CET-Gilroy,7800 Arroyo Cir,Kavya,Gilroy,CA,95020,,37.015671,Kavya,Kavya,7/6/2016 1:48,7/6/2016 1:48
111799,-121.652791,CET-Salinas,421 Monterey St,Kavya,Salinas,CA,93901,,36.671635,Kavya,Kavya,7/6/2016 1:48,7/6/2016 1:48
111887,-118.097263,Cerritos College,11110 Alondra Blvd,Kavya,Norwalk,CA,90650-6298,,33.88584,Kavya,Kavya,7/6/2016 1:48,7/6/2016 1:48
111896,-117.667706,Cerro Coso Community College,3000 College Heights Blvd,Kavya,Ridgecrest,CA,93555-9571,,35.567763,Kavya,Kavya,7/6/2016 1:48,7/6/2016 1:48
111920,-122.106969,Chabot College,25555 Hesperian Blvd,Kavya,Hayward,CA,94545,,37.642513,Kavya,Kavya,7/6/2016 1:48,7/6/2016 1:48
111939,-117.573086,Chaffey College,5885 Haven Ave,Kavya,Rancho Cucamonga,CA,91737-3002,,34.14705,Kavya,Kavya,7/6/2016 1:48,7/6/2016 1:48
111948,-117.851481,Chapman University,One University Dr.,Kavya,Orange,CA,92866,,33.793678,Kavya,Kavya,7/6/2016 1:48,7/6/2016 1:48
111966,-118.242791,Charles R Drew University of Medicine and Science,1731 E 120th St,Kavya,Los Angeles,CA,90059,,33.925658,Kavya,Kavya,7/6/2016 1:48,7/6/2016 1:48
112075,-117.81063,Concordia University-Irvine,1530 Concordia West,Kavya,Irvine,CA,92612-3203,,33.6535,Kavya,Kavya,7/6/2016 1:48,7/6/2016 1:48
112084,-116.977577,San Diego Christian College,200 Riverview Parkway,Kavya,Santee,CA,92071,,32.842505,Kavya,Kavya,7/6/2016 1:48,7/6/2016 1:48
112127,-122.261391,Church Divinity School of the Pacific,2451 Ridge Road,Kavya,Berkeley,CA,94709-1211,,37.876169,Kavya,Kavya,7/6/2016 1:48,7/6/2016 1:48
112172,-117.885266,Citrus College,1000 W Foothill Blvd,Kavya,Glendora,CA,91741-1899,,34.135487,Kavya,Kavya,7/6/2016 1:48,7/6/2016 1:48
112181,-121.289501,Citrus Heights Beauty College,7518 Baird Way,Kavya,Citris Heights,CA,95610-1410,,38.7131,Kavya,Kavya,7/6/2016 1:48,7/6/2016 1:48
112190,-122.451155,City College of San Francisco,50 Phelan Ave,Kavya,San Francisco,CA,94112-1898,,37.725953,Kavya,Kavya,7/6/2016 1:48,7/6/2016 1:48
112251,-117.712394,Claremont Graduate University,150 E Tenth St,Kavya,Claremont,CA,91711-6160,,34.103778,Kavya,Kavya,7/6/2016 1:48,7/6/2016 1:48
112260,-117.706593,Claremont McKenna College,500 E 9th St,Kavya,Claremont,CA,91711-6400,,34.102323,Kavya,Kavya,7/6/2016 1:48,7/6/2016 1:48
112288,-119.312151,Milan Institute-Visalia,6500 S. Mooney Blvd.,Kavya,Visalia,CA,93277,,36.27164,Kavya,Kavya,7/6/2016 1:48,7/6/2016 1:48
112367,-119.69019,Clovis Adult Education,1452 David E Cook Way,Kavya,Clovis,CA,93611,,36.836915,Kavya,Kavya,7/6/2016 1:48,7/6/2016 1:48
112376,-117.911116,Coast Community College District Office,1370 Adams Ave.,Kavya,Costa Mesa,CA,92626,,33.669121,Kavya,Kavya,7/6/2016 1:48,7/6/2016 1:48
112385,-117.861844,Coastline Community College,11460 Warner Ave.,Kavya,Fountain Valley,CA,92708-2597,,33.609771,Kavya,Kavya,7/6/2016 1:48,7/6/2016 1:48
112394,-122.024177,Cogswell College,1175 Bordeaux  Drive,Kavya,Sunnyvale,CA,94089,,37.407027,Kavya,Kavya,7/6/2016 1:48,7/6/2016 1:48
112446,-117.136493,Coleman University,8888 Balboa Ave,Kavya,San Diego,CA,92123-1506,,32.821962,Kavya,Kavya,7/6/2016 1:48,7/6/2016 1:48
112455,-117.85348,COBA Academy,102 N Glassell St,Kavya,Orange,CA,92866,,33.788258,Kavya,Kavya,7/6/2016 1:48,7/6/2016 1:48
112525,-117.747732,Western University of Health Sciences,309 E 2nd St,Kavya,Pomona,CA,91766-1854,,34.058092,Kavya,Kavya,7/6/2016 1:48,7/6/2016 1:48
112561,-120.387603,Columbia College,11600 Columbia College Dr,Kavya,Sonora,CA,95370,,38.030361,Kavya,Kavya,7/6/2016 1:48,7/6/2016 1:48
112570,-118.538394,Columbia College-Hollywood,18618 Oxnard St,Kavya,Tarzana,CA,91356-1411,,34.179596,Kavya,Kavya,7/6/2016 1:48,7/6/2016 1:48
112686,-118.209186,El Camino College-Compton Center,1111 East Artesia Blvd.,Kavya,Compton,CA,90221-5393,,33.876665,Kavya,Kavya,7/6/2016 1:48,7/6/2016 1:48
112817,-122.134774,Contra Costa Community College District Office,500 Court St,Kavya,Martinez,CA,94553,,38.018943,Kavya,Kavya,7/6/2016 1:48,7/6/2016 1:48
112826,-122.342386,Contra Costa College,2600 Mission Bell Dr,Kavya,San Pablo,CA,94806-3195,,37.968623,Kavya,Kavya,7/6/2016 1:48,7/6/2016 1:48
113096,-121.422971,Cosumnes River College,8401 Center Parkway,Kavya,Sacramento,CA,95823-5799,,38.453836,Kavya,Kavya,7/6/2016 1:48,7/6/2016 1:48
113111,-117.100826,Crafton Hills College,11711 Sand Canyon Road,Kavya,Yucaipa,CA,92339-1799,,34.038513,Kavya,Kavya,7/6/2016 1:48,7/6/2016 1:48
113193,-120.741624,Cuesta College,Highway 1,Kavya,San Luis Obispo,CA,93403-8106,,35.329859,Kavya,Kavya,7/6/2016 1:48,7/6/2016 1:48
113218,-116.941044,Cuyamaca College,900 Rancho San Diego Pky,Kavya,El Cajon,CA,92019,,32.743072,Kavya,Kavya,7/6/2016 1:48,7/6/2016 1:48
113236,-118.023889,Cypress College,9200 Valley View,Kavya,Cypress,CA,90630-5897,,33.827625,Kavya,Kavya,7/6/2016 1:48,7/6/2016 1:48
113333,-122.045365,De Anza College,21250 Stevens Creek Blvd.,Kavya,Cupertino,CA,95014,,37.319176,Kavya,Kavya,7/6/2016 1:48,7/6/2016 1:48
113397,-116.999892,Marinello Schools of Beauty-Hemet,2627 W Florida Ave-Ste 100,Kavya,Hemet,CA,92545,,33.746002,Kavya,Kavya,7/6/2016 1:48,7/6/2016 1:48
113449,-116.403928,International School of Beauty Inc,72261 Hwy 111 Ste 121-B,Kavya,Palm Desert,CA,92260-2740,,33.729555,Kavya,Kavya,7/6/2016 1:48,7/6/2016 1:48
113537,-123.988878,Dell'Arte International School of Physical Theatre,131 H Street,Kavya,Blue Lake,CA,95525-0816,,40.880871,Kavya,Kavya,7/6/2016 1:48,7/6/2016 1:48
113573,-116.38761,College of the Desert,43-500 Monterey Ave,Kavya,Palm Desert,CA,92260,,33.732484,Kavya,Kavya,7/6/2016 1:48,7/6/2016 1:48
113582,-117.149808,Design Institute of San Diego,8555 Commerce Ave,Kavya,San Diego,CA,92121,,32.731022,Kavya,Kavya,7/6/2016 1:48,7/6/2016 1:48
113634,-122.069861,Diablo Valley College,321 Golf Club Rd,Kavya,Pleasant Hill,CA,94523,,37.968035,Kavya,Kavya,7/6/2016 1:48,7/6/2016 1:48
113698,-122.514654,Dominican University of California,50 Acacia Ave,Kavya,San Rafael,CA,94901-2298,,37.980014,Kavya,Kavya,7/6/2016 1:48,7/6/2016 1:48
113704,-122.264612,Dominican School of Philosophy & Theology,2301 Vine Street,Kavya,Berkeley,CA,94708-1816,,37.881099,Kavya,Kavya,7/6/2016 1:48,7/6/2016 1:48
113856,-118.148384,East Los Angeles College,1301 Avenida Cesar Chavez,Kavya,Monterey Park,CA,91754-6099,,34.039205,Kavya,Kavya,7/6/2016 1:48,7/6/2016 1:48
113908,-121.947773,Marinello Schools of Beauty-Santa Clara,955 Monroe St,Kavya,Santa Clara,CA,95050,,37.347964,Kavya,Kavya,7/6/2016 1:48,7/6/2016 1:48
113980,-118.326623,El Camino Community College District,16007 Crenshaw Blvd,Kavya,Torrance,CA,90506,,33.885586,Kavya,Kavya,7/6/2016 1:48,7/6/2016 1:48
114044,-118.338332,Elegance International,1622 N. Highland Ave,Kavya,Hollywood,CA,90028-6106,,34.062216,Kavya,Kavya,7/6/2016 1:48,7/6/2016 1:48
114071,-118.309749,Marinello Schools of Beauty-Burbank,200 N. San Fernando Blvd,Kavya,Burbank,CA,91502,,34.181902,Kavya,Kavya,7/6/2016 1:48,7/6/2016 1:48
114080,-117.228072,Marinello Schools of Beauty-Moreno Valley,24741 Alessandro Blvd,Kavya,Moreno Valley,CA,92553,,33.915981,Kavya,Kavya,7/6/2016 1:48,7/6/2016 1:48
114114,-118.4847,Emperor's College of Traditional Oriental Medicine,"1807 Wilshire Blvd, Ste #200",Kavya,Santa Monica,CA,90403,,34.0303,Kavya,Kavya,7/6/2016 1:48,7/6/2016 1:48
114123,-122.728642,Empire College School of Business,3035 Cleveland Ave,Kavya,Santa Rosa,CA,95403-2126,,38.467789,Kavya,Kavya,7/6/2016 1:48,7/6/2016 1:48
114266,-121.766686,Evergreen Valley College,3095 Yerba Buena Rd,Kavya,San Jose,CA,95135-1598,,37.301736,Kavya,Kavya,7/6/2016 1:48,7/6/2016 1:48
114354,-118.25993,Fashion Institute of Design & Merchandising-Los Angeles,919 S Grand Ave,Kavya,Los Angeles,CA,90015-1421,,34.044209,Kavya,Kavya,7/6/2016 1:48,7/6/2016 1:48
114390,-122.406503,Fashion Institute of Design & Merchandising-San Francisco,55 Stockton St,Kavya,San Francisco,CA,94108-5805,,37.786324,Kavya,Kavya,7/6/2016 1:48,7/6/2016 1:48
114415,-117.852254,Fashion Institute of Design & Merchandising-Orange County,17590 Gillette Avenue,Kavya,Irvine,CA,92614-5610,,33.691963,Kavya,Kavya,7/6/2016 1:48,7/6/2016 1:48
114433,-120.970877,Feather River Community College District,570 Golden Eagle Ave,Kavya,Quincy,CA,95971-9124,,39.952395,Kavya,Kavya,7/6/2016 1:48,7/6/2016 1:48
114460,-121.497761,Federico Beauty Institute,1515 Sports Drive    Ste 100,Kavya,Sacramento,CA,95834,,38.64883,Kavya,Kavya,7/6/2016 1:48,7/6/2016 1:48
114549,-119.717151,Fielding Graduate University,2020 De La Vina St,Kavya,Santa Barbara,CA,93105-3538,,34.4294,Kavya,Kavya,7/6/2016 1:48,7/6/2016 1:48
114585,-121.998478,Five Branches University,200 7th Avenue,Kavya,Santa Cruz,CA,95062,,36.964133,Kavya,Kavya,7/6/2016 1:48,7/6/2016 1:48
114628,-117.836692,Hair California Beauty Academy,1110 N Tustin St,Kavya,Orange,CA,92867,,33.805786,Kavya,Kavya,7/6/2016 1:48,7/6/2016 1:48
114637,-118.37224,Redondo Beach Beauty College,2205 West Artesia Boulevard,Kavya,Redondo Beach,CA,90278-3111,,33.872918,Kavya,Kavya,7/6/2016 1:48,7/6/2016 1:48
114716,-122.12833,Foothill College,12345 El Monte Rd,Kavya,Los Altos Hills,CA,94022,,37.361104,Kavya,Kavya,7/6/2016 1:48,7/6/2016 1:48
114734,-117.318006,Franciscan School of Theology,4050 Mission Avenue,Kavya,Oceanside,CA,92057,,33.230738,Kavya,Kavya,7/6/2016 1:48,7/6/2016 1:48
114761,-124.165778,Fredrick and Charles Beauty College,831 F St,Kavya,Eureka,CA,95501,,40.798811,Kavya,Kavya,7/6/2016 1:48,7/6/2016 1:48
114789,-119.795129,Fresno City College,1101 E. University Ave,Kavya,Fresno,CA,93741,,36.767516,Kavya,Kavya,7/6/2016 1:48,7/6/2016 1:48
114813,-119.731953,Fresno Pacific University,1717 S Chestnut Ave,Kavya,Fresno,CA,93702-4709,,36.725279,Kavya,Kavya,7/6/2016 1:48,7/6/2016 1:48
114831,-122.127054,Foothill-De Anza Community College District,12345 El Monte Rd,Kavya,Los Altos Hills,CA,94022-4599,,37.360961,Kavya,Kavya,7/6/2016 1:48,7/6/2016 1:48
114840,-118.140261,Fuller Theological Seminary in California,135 N Oakland Ave,Kavya,Pasadena,CA,91182,,34.14778,Kavya,Kavya,7/6/2016 1:48,7/6/2016 1:48
114859,-117.916986,Fullerton College,321 E Chapman Avenue,Kavya,Fullerton,CA,92832-2095,,33.876794,Kavya,Kavya,7/6/2016 1:48,7/6/2016 1:48
114938,-121.568174,Gavilan College,5055 Santa Teresa Blvd,Kavya,Gilroy,CA,95020,,36.973274,Kavya,Kavya,7/6/2016 1:48,7/6/2016 1:48
114947,-117.318765,Gemological Institute of America-Carlsbad,5345 Armada Dr,Kavya,Carlsbad,CA,92008,,33.131313,Kavya,Kavya,7/6/2016 1:48,7/6/2016 1:48
115001,-118.228251,Glendale Community College,1500 N Verdugo Rd,Kavya,Glendale,CA,91208-2894,,34.166422,Kavya,Kavya,7/6/2016 1:48,7/6/2016 1:48
115010,-118.254561,Glendale Career College,240 North Brand Boulevard Lower Level,Kavya,Glendale,CA,91203,,34.14969,Kavya,Kavya,7/6/2016 1:48,7/6/2016 1:48
115083,-122.398785,Golden Gate University-San Francisco,536 Mission Street,Kavya,San Francisco,CA,94105-2968,,37.789208,Kavya,Kavya,7/6/2016 1:48,7/6/2016 1:48
115126,-118.003036,Golden West College,15744 Goldenwest St.,Kavya,Huntington Beach,CA,92647-2710,,33.733775,Kavya,Kavya,7/6/2016 1:48,7/6/2016 1:48
115214,-122.261847,Graduate Theological Union,2400 Ridge Rd,Kavya,Berkeley,CA,94709,,37.87554,Kavya,Kavya,7/6/2016 1:48,7/6/2016 1:48
115287,-117.007292,Grossmont-Cuyamaca Community College District,8800 Grossmont College Dr,Kavya,El Cajon,CA,92020-1799,,32.816054,Kavya,Kavya,7/6/2016 1:48,7/6/2016 1:48
115296,-117.007292,Grossmont College,8800 Grossmont College Dr,Kavya,El Cajon,CA,92020-1799,,32.816077,Kavya,Kavya,7/6/2016 1:48,7/6/2016 1:48
115357,-117.287615,Salon Success Academy-San Bernardino,208 W Highland Ave,Kavya,San Bernardino,CA,92405,,34.135988,Kavya,Kavya,7/6/2016 1:48,7/6/2016 1:48
115393,-121.668763,Hartnell College,411 Central Avenue,Kavya,Salinas,CA,93901,,36.673052,Kavya,Kavya,7/6/2016 1:48,7/6/2016 1:48
115409,-117.710594,Harvey Mudd College,301 Platt Blvd.,Kavya,Claremont,CA,91711,,34.106137,Kavya,Kavya,7/6/2016 1:48,7/6/2016 1:48
115454,-121.280086,Heald College-Rancho Cordova,2910 Prospect Park Dr,Kavya,Rancho Cordova,CA,95670,,38.594382,Kavya,Kavya,7/6/2016 1:48,7/6/2016 1:48
115472,-119.795525,Heald College-Fresno,255 W Bullard,Kavya,Fresno,CA,93704,,36.822401,Kavya,Kavya,7/6/2016 1:48,7/6/2016 1:48
115490,-121.893911,Heald College-San Jose,341 Great Mall Pky,Kavya,Milpitas,CA,95035-8008,,37.410897,Kavya,Kavya,7/6/2016 1:48,7/6/2016 1:48
115515,-122.404299,Heald College-San Francisco,875 Howard Street Suite 100,Kavya,San Francisco,CA,94103,,37.781933,Kavya,Kavya,7/6/2016 1:48,7/6/2016 1:48
115533,-122.030047,Heald College-Concord,5130 Commercial Circle,Kavya,Concord,CA,94520-0522,,38.018938,Kavya,Kavya,7/6/2016 1:48,7/6/2016 1:48
115658,-122.461674,Hilltop Beauty School,6317 Mission St,Kavya,Daly City,CA,94014,,37.705545,Kavya,Kavya,7/6/2016 1:48,7/6/2016 1:48
115728,-122.18717,Holy Names University,3500 Mountain Blvd,Kavya,Oakland,CA,94619-1699,,37.802654,Kavya,Kavya,7/6/2016 1:48,7/6/2016 1:48
115746,-119.580264,Pacifica Graduate Institute,249 Lambert Rd,Kavya,Carpinteria,CA,93013,,34.420464,Kavya,Kavya,7/6/2016 1:48,7/6/2016 1:48
115755,-124.0814,Humboldt State University,1 Harpst Street,Kavya,Arcata,CA,95521-8299,,40.8741,Kavya,Kavya,7/6/2016 1:48,7/6/2016 1:48
115773,-121.316401,Humphreys College-Stockton and Modesto Campuses,6650 Inglewood Ave,Kavya,Stockton,CA,95207-3896,,38.011051,Kavya,Kavya,7/6/2016 1:48,7/6/2016 1:48
115861,-115.503903,Imperial Valley College,380 E. Aten Road,Kavya,Imperial,CA,92251-0158,,32.827563,Kavya,Kavya,7/6/2016 1:48,7/6/2016 1:48
115931,-121.969541,Institute for Business and Technology,2400 Walsh Avenue,Kavya,Santa Clara,CA,95051-1303,,37.368642,Kavya,Kavya,7/6/2016 1:48,7/6/2016 1:48
116226,-117.865722,Interior Designers Institute,1061 Camelback Rd,Kavya,Newport Beach,CA,92660,,33.641393,Kavya,Kavya,7/6/2016 1:48,7/6/2016 1:48
116350,-118.494898,Toni & Guy Hairdressing Academy-Santa Monica,1358 5th St,Kavya,Santa Monica,CA,90401,,34.017466,Kavya,Kavya,7/6/2016 1:48,7/6/2016 1:48
116439,-117.778575,Irvine Valley College,5500 Irvine Center Drive,Kavya,Irvine,CA,92618-0301,,33.675079,Kavya,Kavya,7/6/2016 1:48,7/6/2016 1:48
116466,-117.105941,ITT Technical Institute-National City,"401 Mile of Cars Way, Suite 100",Kavya,National City,CA,91950,,32.66165,Kavya,Kavya,7/6/2016 1:48,7/6/2016 1:48
116475,-117.818401,ITT Technical Institute-San Dimas,650 W. Cienega Ave.,Kavya,San Dimas,CA,91773,,34.102405,Kavya,Kavya,7/6/2016 1:48,7/6/2016 1:48
116484,-117.896161,ITT Technical Institute-Orange,"4000 W. Metropolitian Dr., Suite 100",Kavya,Orange,CA,92868,,33.78006,Kavya,Kavya,7/6/2016 1:48,7/6/2016 1:48
116563,-116.945728,Bellus Academy-El Cajon,1073 E Main St,Kavya,El Cajon,CA,92021,,32.794827,Kavya,Kavya,7/6/2016 1:48,7/6/2016 1:48
116712,-122.183972,John F. Kennedy University,100 Ellinwood Way,Kavya,Pleasant Hill,CA,94523-4817,,37.881794,Kavya,Kavya,7/6/2016 1:48,7/6/2016 1:48
116846,-118.471764,American Jewish University,15600 Mulholland Dr,Kavya,Los Angeles,CA,90077-1519,,34.128099,Kavya,Kavya,7/6/2016 1:48,7/6/2016 1:48
117052,-119.45993,Reedley College,995 N Reed Ave,Kavya,Reedley,CA,93654,,36.605968,Kavya,Kavya,7/6/2016 1:48,7/6/2016 1:48
117104,-117.830997,Life Pacific College,1100 W. Covina Blvd.,Kavya,San Dimas,CA,91773-3298,,34.089421,Kavya,Kavya,7/6/2016 1:48,7/6/2016 1:48
117113,-117.155395,The Art Institute of California-Argosy University San Diego,7650 Mission Valley Road,Kavya,San Diego,CA,92108-4423,,32.778278,Kavya,Kavya,7/6/2016 1:48,7/6/2016 1:48
117140,-117.772634,University of La Verne,1950 Third St,Kavya,La Verne,CA,91750-4401,,34.10086,Kavya,Kavya,7/6/2016 1:48,7/6/2016 1:48
117168,-117.772564,Laguna College of Art and Design,2222 Laguna Canyon Rd,Kavya,Laguna Beach,CA,92651,,33.561448,Kavya,Kavya,7/6/2016 1:48,7/6/2016 1:48
117195,-119.971631,Lake Tahoe Community College,One College Drive,Kavya,South Lake Tahoe,CA,96150,,38.926864,Kavya,Kavya,7/6/2016 1:48,7/6/2016 1:48
117238,-118.148664,Lancaster Beauty School,44646 N 10th St W,Kavya,Lancaster,CA,93534,,34.695646,Kavya,Kavya,7/6/2016 1:48,7/6/2016 1:48
117247,-122.262434,Laney College,900 Fallon Sreet,Kavya,Oakland,CA,94607,,37.796205,Kavya,Kavya,7/6/2016 1:48,7/6/2016 1:48
117274,-120.625041,Lassen Community College,478-200 Hwy 139,Kavya,Susanville,CA,96130,,40.447186,Kavya,Kavya,7/6/2016 1:48,7/6/2016 1:48
117520,-122.11627,Life Chiropractic College West,25001 Industrial Blvd,Kavya,Hayward,CA,94545-2800,,37.637639,Kavya,Kavya,7/6/2016 1:48,7/6/2016 1:48
117557,-122.269745,Lincoln University,401 15th Street,Kavya,Oakland,CA,94612-2801,,37.804788,Kavya,Kavya,7/6/2016 1:48,7/6/2016 1:48
117575,-116.900531,Southern California Seminary,2075 E. Madison Avenue,Kavya,El Cajon,CA,92019-1108,,32.803259,Kavya,Kavya,7/6/2016 1:48,7/6/2016 1:48
117627,-117.497071,La Sierra University,4500 Riverwalk Parkway,Kavya,Riverside,CA,92515-8247,,33.908834,Kavya,Kavya,7/6/2016 1:48,7/6/2016 1:48
117636,-117.261056,Loma Linda University,11139 Anderson Street,Kavya,Loma Linda,CA,92350,,34.051518,Kavya,Kavya,7/6/2016 1:48,7/6/2016 1:48
117645,-118.135819,Long Beach City College,4901 E. Carson St.,Kavya,Long Beach,CA,90808-1706,,33.831741,Kavya,Kavya,7/6/2016 1:48,7/6/2016 1:48
117672,-117.985447,Southern California University of Health Sciences,16200 East Amber Valley Drive,Kavya,Whittier,CA,90604,,33.924638,Kavya,Kavya,7/6/2016 1:48,7/6/2016 1:48
117681,-118.258063,Los Angeles Community College District Office,770 Wilshire Blvd,Kavya,Los Angeles,CA,90017,,34.048775,Kavya,Kavya,7/6/2016 1:48,7/6/2016 1:48
117690,-118.28186,Los Angeles Harbor College,1111 Figueroa Place,Kavya,Wilmington,CA,90744-2397,,33.784201,Kavya,Kavya,7/6/2016 1:48,7/6/2016 1:48
117706,-118.577194,Los Angeles Pierce College,6201 Winnetka Ave,Kavya,Woodland Hills,CA,91371-0002,,34.184184,Kavya,Kavya,7/6/2016 1:48,7/6/2016 1:48
117715,-118.304674,Los Angeles Southwest College,1600 W Imperial Hwy.,Kavya,Los Angeles,CA,90047-4899,,33.929586,Kavya,Kavya,7/6/2016 1:48,7/6/2016 1:48
117724,-118.269113,Los Angeles Trade Technical College,400 W Washington Blvd,Kavya,Los Angeles,CA,90015-4181,,34.032623,Kavya,Kavya,7/6/2016 1:48,7/6/2016 1:48
117733,-118.421446,Los Angeles Valley College,5800 Fulton Avenue,Kavya,Valley Glen,CA,91401-4096,,34.176406,Kavya,Kavya,7/6/2016 1:48,7/6/2016 1:48
117751,-118.517422,The Master's College and Seminary,21726 Placerita Canyon Road,Kavya,Santa Clarita,CA,91321-1200,,34.38214,Kavya,Kavya,7/6/2016 1:48,7/6/2016 1:48
117788,-118.292169,Los Angeles City College,855 N Vermont Ave,Kavya,Los Angeles,CA,90029,,34.087301,Kavya,Kavya,7/6/2016 1:48,7/6/2016 1:48
117803,-118.211418,Los Angeles County College of Nursing and Allied Health,1237 N. Mission Rd.,Kavya,Los Angeles,CA,90033-1084,,34.061605,Kavya,Kavya,7/6/2016 1:48,7/6/2016 1:48
117867,-118.419087,Los Angeles Mission College,13356 Eldridge Avenue,Kavya,Sylmar,CA,91342-3200,,34.314944,Kavya,Kavya,7/6/2016 1:48,7/6/2016 1:48
117894,-121.861122,Los Medanos College,2700 East Leland Road,Kavya,Pittsburg,CA,94565,,38.005552,Kavya,Kavya,7/6/2016 1:48,7/6/2016 1:48
117900,-121.417145,Los Rios Community College District Office,1919 Spanos Ct,Kavya,Sacramento,CA,95825-3981,,38.579859,Kavya,Kavya,7/6/2016 1:48,7/6/2016 1:48
117928,-122.417185,The Art Institute of California-Argosy University San Francisco,1170 Market St,Kavya,San Francisco,CA,94102-4908,,37.803958,Kavya,Kavya,7/6/2016 1:48,7/6/2016 1:48
117946,-118.415655,Loyola Marymount University,One Lmu Drive,Kavya,Los Angeles,CA,90045-2659,,33.970633,Kavya,Kavya,7/6/2016 1:48,7/6/2016 1:48
117955,-119.293952,Lu Ross Academy,470 East Thompson Blvd,Kavya,Ventura,CA,93001-2729,,34.278034,Kavya,Kavya,7/6/2016 1:48,7/6/2016 1:48
118116,-119.79116,Manchester Beauty College,3756 N Blackstone Ave,Kavya,Fresno,CA,93726,,36.792868,Kavya,Kavya,7/6/2016 1:48,7/6/2016 1:48
118125,-119.367947,Tulare Beauty College,1400 W Inyo St,Kavya,Tulare,CA,93274,,36.204102,Kavya,Kavya,7/6/2016 1:48,7/6/2016 1:48
118134,-119.023903,Lyles Bakersfield College of Beauty,2935 F St,Kavya,Bakersfield,CA,93301,,35.386525,Kavya,Kavya,7/6/2016 1:48,7/6/2016 1:48
118143,-119.773747,Lyles Fresno College of Beauty,6735 N First Ave Ste 112,Kavya,Fresno,CA,93710,,36.836251,Kavya,Kavya,7/6/2016 1:48,7/6/2016 1:48
118161,-122.758546,Lytles Redwood Empire Beauty College Inc,186 Wikiup Dr,Kavya,Santa Rosa,CA,95403,,38.508581,Kavya,Kavya,7/6/2016 1:48,7/6/2016 1:48
118189,-121.308527,MTI Business College Inc,6006 N. El Dorado Street,Kavya,Stockton,CA,95207-4349,,38.007318,Kavya,Kavya,7/6/2016 1:48,7/6/2016 1:48
118198,-121.342568,MTI College,5221 Madison Ave,Kavya,Sacramento,CA,95841-9817,,38.661377,Kavya,Kavya,7/6/2016 1:48,7/6/2016 1:48
118259,-121.380453,Kaplan College-Sacramento,"4330 Watt Ave., Suite 400",Kavya,Sacramento,CA,95821,,38.644462,Kavya,Kavya,7/6/2016 1:48,7/6/2016 1:48
118277,-117.133017,Kaplan College-San Diego,9055 Balboa Avenue,Kavya,San Diego,CA,92123,,32.821707,Kavya,Kavya,7/6/2016 1:48,7/6/2016 1:48
118286,-117.220816,Kaplan College-Vista,2022 University Dr,Kavya,Vista,CA,92083-7736,,33.17244,Kavya,Kavya,7/6/2016 1:48,7/6/2016 1:48
118347,-122.549936,College of Marin,835 College Ave,Kavya,Kentfield,CA,94904-2590,,37.955014,Kavya,Kavya,7/6/2016 1:48,7/6/2016 1:48
118356,-118.219865,Marinello Schools of Beauty-Los Angeles,1241 S. Soto Street Suite #101,Kavya,Los Angeles,CA,90023,,34.027512,Kavya,Kavya,7/6/2016 1:48,7/6/2016 1:48
118541,-118.333404,Marymount California University,30800 Palos Verdes Drive East,Kavya,Rancho Palos Verdes,CA,90275-6299,,33.73463,Kavya,Kavya,7/6/2016 1:48,7/6/2016 1:48
118684,-123.22903,Mendocino College,1000 Hensley Creek Road,Kavya,Ukiah,CA,95482,,39.19119,Kavya,Kavya,7/6/2016 1:48,7/6/2016 1:48
118693,-122.181444,Menlo College,1000 El Camino Real,Kavya,Atherton,CA,94027-4301,,37.452906,Kavya,Kavya,7/6/2016 1:48,7/6/2016 1:48
118718,-120.476726,Merced College,3600 M St,Kavya,Merced,CA,95348-2898,,37.335348,Kavya,Kavya,7/6/2016 1:48,7/6/2016 1:48
118772,-122.167335,Merritt College,12500 Campus Dr,Kavya,Oakland,CA,94619-3196,,37.789088,Kavya,Kavya,7/6/2016 1:48,7/6/2016 1:48
118888,-122.18789,Mills College,5000 MacArthur Blvd,Kavya,Oakland,CA,94613,,37.782639,Kavya,Kavya,7/6/2016 1:48,7/6/2016 1:48
118912,-117.302283,MiraCosta College,One Barnard Drive,Kavya,Oceanside,CA,92056-3899,,33.191231,Kavya,Kavya,7/6/2016 1:48,7/6/2016 1:48
118921,-122.411072,Marinello Schools of Beauty-San Francisco,1035 Market Street,Kavya,San Francisco,CA,94103,,37.781587,Kavya,Kavya,7/6/2016 1:48,7/6/2016 1:48
118930,-121.982174,Mission College,3000 Mission College Blvd,Kavya,Santa Clara,CA,95054-1897,,37.391323,Kavya,Kavya,7/6/2016 1:48,7/6/2016 1:48
118958,-119.181423,Modern Beauty Academy,699 South C St,Kavya,Oxnard,CA,93030,,34.195384,Kavya,Kavya,7/6/2016 1:48,7/6/2016 1:48
118967,-118.396131,Kaplan College-North Hollywood,"6180 Laurel Canyon Boulevard, Suite 101",Kavya,North Hollywood,CA,91606-3231,,34.182673,Kavya,Kavya,7/6/2016 1:48,7/6/2016 1:48
118976,-121.009723,Modesto Junior College,435 College Ave,Kavya,Modesto,CA,95350-5800,,37.652042,Kavya,Kavya,7/6/2016 1:48,7/6/2016 1:48
118994,-122.265094,Moler Barber College,3815 Telegraph Ave,Kavya,Oakland,CA,94609-2419,,37.826826,Kavya,Kavya,7/6/2016 1:48,7/6/2016 1:48
119058,-121.896813,Monterey Institute of International Studies,460 Pierce Street,Kavya,Monterey,CA,93940,,36.599827,Kavya,Kavya,7/6/2016 1:48,7/6/2016 1:48
119067,-121.885774,Monterey Peninsula College,980 Fremont St,Kavya,Monterey,CA,93940-4799,,36.590826,Kavya,Kavya,7/6/2016 1:48,7/6/2016 1:48
119137,-118.836624,Moorpark College,7075 Campus Rd,Kavya,Moorpark,CA,93021-1695,,34.300018,Kavya,Kavya,7/6/2016 1:48,7/6/2016 1:48
119164,-117.8437,Mt San Antonio College,1100 N Grand Ave,Kavya,Walnut,CA,91789-1399,,34.043786,Kavya,Kavya,7/6/2016 1:48,7/6/2016 1:48
119173,-118.480471,Mount Saint Mary's University,12001 Chalon Rd,Kavya,Los Angeles,CA,90049-1599,,34.082112,Kavya,Kavya,7/6/2016 1:48,7/6/2016 1:48
119216,-116.970063,Mt San Jacinto Community College District,1499 N. State St.,Kavya,San Jacinto,CA,92583-2399,,33.807364,Kavya,Kavya,7/6/2016 1:48,7/6/2016 1:48
119234,-117.163741,Mueller College,"123 Camino de la Reina, #100 North",Kavya,San Diego,CA,92108-3002,,32.76457,Kavya,Kavya,7/6/2016 1:48,7/6/2016 1:48
119270,-118.337685,Musicians Institute,6752 Hollywood Blvd.,Kavya,Hollywood,CA,90028,,34.101497,Kavya,Kavya,7/6/2016 1:48,7/6/2016 1:48
119331,-122.272565,Napa Valley College,2277 Napa-Vallejo Hwy,Kavya,Napa,CA,94558-6236,,38.27254,Kavya,Kavya,7/6/2016 1:48,7/6/2016 1:48
119359,-118.526677,Everest College-Reseda,18040 Sherman Way Ste 400,Kavya,Reseda,CA,91335-4631,,34.200824,Kavya,Kavya,7/6/2016 1:48,7/6/2016 1:48
119456,-118.292896,Everest College-Gardena,"1045 W. Redondo Beach Boulevard, Suite 275",Kavya,Gardena,CA,90247,,33.893072,Kavya,Kavya,7/6/2016 1:48,7/6/2016 1:48
119465,-118.148684,Everest College-Alhambra,2215 W Mission Rd,Kavya,Alhambra,CA,91803,,34.080181,Kavya,Kavya,7/6/2016 1:48,7/6/2016 1:48
119508,-117.28222,Everest College-San Bernardino,"217 E. Club Center Drive, Ste. A",Kavya,San Bernardino,CA,92408,,34.059754,Kavya,Kavya,7/6/2016 1:48,7/6/2016 1:48
119544,-121.815921,The National Hispanic University,14271 Story Rd,Kavya,San Jose,CA,95127-3823,,37.359057,Kavya,Kavya,7/6/2016 1:48,7/6/2016 1:48
119553,-122.287672,National Holistic Institute,5900 Doyle Street,Kavya,Emeryville,CA,94608-2008,,37.841898,Kavya,Kavya,7/6/2016 1:48,7/6/2016 1:48
119605,-117.244243,National University,11255 North Torrey Pines Road,Kavya,La Jolla,CA,92037-1011,,32.909469,Kavya,Kavya,7/6/2016 1:48,7/6/2016 1:48
119678,-121.874248,Naval Postgraduate School,1 University Circle,Kavya,Monterey,CA,93943,,36.597159,Kavya,Kavya,7/6/2016 1:48,7/6/2016 1:48
119775,-117.153305,Newschool of Architecture and Design,1249 F St,Kavya,San Diego,CA,92101,,32.71331,Kavya,Kavya,7/6/2016 1:48,7/6/2016 1:48
119845,-118.499469,Newberry School of Beauty,16860 Devonshire Blvd,Kavya,Granada Hills,CA,91344-7401,,34.25748,Kavya,Kavya,7/6/2016 1:48,7/6/2016 1:48
119951,-120.992753,Adrian's College of Beauty Modesto,124 Floyd Ave,Kavya,Modesto,CA,95350-2381,,37.677778,Kavya,Kavya,7/6/2016 1:48,7/6/2016 1:48
120023,-117.945559,North Orange County Community College District,1830 W. Romneya Drive,Kavya,Anaheim,CA,92801-1819,,33.849957,Kavya,Kavya,7/6/2016 1:48,7/6/2016 1:48
120069,-117.751861,North-West College-Pomona,170  W Holt Ave,Kavya,Pomona,CA,91768,,34.06203,Kavya,Kavya,7/6/2016 1:48,7/6/2016 1:48
120078,-117.949583,North-West College-West Covina,2121 W Garvey Ave,Kavya,West Covina,CA,91790,,34.072071,Kavya,Kavya,7/6/2016 1:48,7/6/2016 1:48
120087,-118.139266,North-West College-Pasadena,530 E Union,Kavya,Pasadena,CA,91101,,34.146907,Kavya,Kavya,7/6/2016 1:48,7/6/2016 1:48
120166,-121.925457,Northwestern Polytechnic University,47671 Westinghouse Drive,Kavya,Fremont,CA,94539,,37.47857,Kavya,Kavya,7/6/2016 1:48,7/6/2016 1:48
120184,-122.284618,Notre Dame de Namur University,1500 Ralston Ave,Kavya,Belmont,CA,94002-1908,,37.517501,Kavya,Kavya,7/6/2016 1:48,7/6/2016 1:48
120254,-118.210783,Occidental College,1600 Campus Rd,Kavya,Los Angeles,CA,90041-3392,,34.126224,Kavya,Kavya,7/6/2016 1:48,7/6/2016 1:48
120272,-117.365276,Oceanside College of Beauty,1575 S Coast Hwy,Kavya,Oceanside,CA,92054-5356,,33.178889,Kavya,Kavya,7/6/2016 1:48,7/6/2016 1:48
120290,-121.914597,Ohlone College,43600 Mission Blvd,Kavya,Fremont,CA,94539-0390,,37.527956,Kavya,Kavya,7/6/2016 1:48,7/6/2016 1:48
120342,-117.911401,Orange Coast College,2701 Fairview Road,Kavya,Costa Mesa,CA,92626,,33.670171,Kavya,Kavya,7/6/2016 1:48,7/6/2016 1:48
120403,-118.416615,Otis College of Art and Design,9045 Lincoln Blvd,Kavya,Los Angeles,CA,90045-3505,,33.956607,Kavya,Kavya,7/6/2016 1:48,7/6/2016 1:48
120421,-119.15549,Oxnard College,4000 S Rose Ave,Kavya,Oxnard,CA,93033-6699,,34.164899,Kavya,Kavya,7/6/2016 1:48,7/6/2016 1:48
120537,-117.88573,Hope International University,2500 E Nutwood Ave,Kavya,Fullerton,CA,92831-3199,,33.87616,Kavya,Kavya,7/6/2016 1:48,7/6/2016 1:48
120661,-117.10187,Concorde Career College-San Diego,"4393 Imperial Avenue, Suite 100",Kavya,San Diego,CA,92113-1964,,32.70406,Kavya,Kavya,7/6/2016 1:48,7/6/2016 1:48
120698,-122.186022,Palo Alto University,1791 Arastradero Rd,Kavya,Palo Alto,CA,94304-1337,,37.383251,Kavya,Kavya,7/6/2016 1:48,7/6/2016 1:48
120740,-122.260201,Pacific Lutheran Theological Seminary,2770 Marin Ave,Kavya,Berkeley,CA,94708-1597,,37.898172,Kavya,Kavya,7/6/2016 1:48,7/6/2016 1:48
120768,-118.15158,Pacific Oaks College,55 Eureka Street,Kavya,Pasadena,CA,91103,,34.153088,Kavya,Kavya,7/6/2016 1:48,7/6/2016 1:48
120795,-122.263331,Pacific School of Religion,1798 Scenic Ave,Kavya,Berkeley,CA,94709,,37.876599,Kavya,Kavya,7/6/2016 1:48,7/6/2016 1:48
120838,-118.299841,Pacific States University,3450 Wilshire Blvd. Suite 500,Kavya,Los Angeles,CA,90010,,34.0607,Kavya,Kavya,7/6/2016 1:48,7/6/2016 1:48
120865,-122.449639,Pacific Union College,One Angwin Ave,Kavya,Angwin,CA,94508-9707,,38.57409,Kavya,Kavya,7/6/2016 1:48,7/6/2016 1:48
120883,-121.307296,University of the Pacific,3601 Pacific Ave,Kavya,Stockton,CA,95211-0197,,37.980624,Kavya,Kavya,7/6/2016 1:48,7/6/2016 1:48
120953,-114.651698,Palo Verde College,One College Drive,Kavya,Blythe,CA,92225,,33.661538,Kavya,Kavya,7/6/2016 1:48,7/6/2016 1:48
120971,-117.181718,Palomar College,1140 W. Mission,Kavya,San Marcos,CA,92069-1487,,33.15019,Kavya,Kavya,7/6/2016 1:48,7/6/2016 1:48
121017,-122.043458,Paris Beauty College,1655 Willow Pass Road,Kavya,Concord,CA,94520,,37.972204,Kavya,Kavya,7/6/2016 1:48,7/6/2016 1:48
121044,-118.118196,Pasadena City College,1570 E Colorado Blvd.,Kavya,Pasadena,CA,91106-2003,,34.144552,Kavya,Kavya,7/6/2016 1:48,7/6/2016 1:48
121150,-118.707677,Pepperdine University,24255 Pacific Coast Hwy,Kavya,Malibu,CA,90263,,34.041912,Kavya,Kavya,7/6/2016 1:48,7/6/2016 1:48
121178,-122.259719,Peralta Community College System Office,333 E Eighth St,Kavya,Oakland,CA,94606,,37.793018,Kavya,Kavya,7/6/2016 1:48,7/6/2016 1:48
121257,-117.705939,Pitzer College,1050 North Mills Avenue,Kavya,Claremont,CA,91711-6101,,34.103408,Kavya,Kavya,7/6/2016 1:48,7/6/2016 1:48
121275,-117.063483,Platt College-San Diego,6250 El Cajon Blvd,Kavya,San Diego,CA,92115-3919,,32.76373,Kavya,Kavya,7/6/2016 1:48,7/6/2016 1:48
121309,-117.251204,Point Loma Nazarene University,3900 Lomaland Dr,Kavya,San Diego,CA,92106-2899,,32.713295,Kavya,Kavya,7/6/2016 1:48,7/6/2016 1:48
121345,-117.711944,Pomona College,550 N College Ave,Kavya,Claremont,CA,91711-6319,,34.098298,Kavya,Kavya,7/6/2016 1:48,7/6/2016 1:48
121363,-119.014368,Porterville College,100 E College Ave,Kavya,Porterville,CA,93257,,36.049256,Kavya,Kavya,7/6/2016 1:48,7/6/2016 1:48
121381,-118.289777,Westwood College-South Bay,"19700 S. Vermont Avenue, Suite 100",Kavya,Torrance,CA,90502,,33.85182,Kavya,Kavya,7/6/2016 1:48,7/6/2016 1:48
121433,-118.038,Professional Institute of Beauty,10801 E. Valley Mall,Kavya,El Monte,CA,91731,,34.075,Kavya,Kavya,7/6/2016 1:48,7/6/2016 1:48
121619,-117.888384,Santa Ana College,1530 W. 17th Street,Kavya,Santa Ana,CA,92706-3398,,33.759203,Kavya,Kavya,7/6/2016 1:48,7/6/2016 1:48
121628,-118.49047,Pardee RAND Graduate School,1776 Main St,Kavya,Santa Monica,CA,90407-2138,,34.009975,Kavya,Kavya,7/6/2016 1:48,7/6/2016 1:48
121637,-122.387211,Shasta School of Cosmetology,678 N Market St,Kavya,Redding,CA,96003,,40.59708,Kavya,Kavya,7/6/2016 1:48,7/6/2016 1:48
121691,-117.163847,University of Redlands,1200 E. Colton Ave,Kavya,Redlands,CA,92373-0999,,34.063571,Kavya,Kavya,7/6/2016 1:48,7/6/2016 1:48
121707,-124.195075,College of the Redwoods,7351 Tompkins Hill Rd,Kavya,Eureka,CA,95501-9300,,40.696744,Kavya,Kavya,7/6/2016 1:48,7/6/2016 1:48
121859,-117.631091,Salon Success Academy-Upland,1385 E. Foothill Blvd,Kavya,Upland,CA,91786,,34.108353,Kavya,Kavya,7/6/2016 1:48,7/6/2016 1:48
121868,-117.535451,Salon Success Academy-Corona,2097 Compton Ave. Suite 201,Kavya,Corona,CA,92879,,33.84778,Kavya,Kavya,7/6/2016 1:48,7/6/2016 1:48
121886,-118.033329,Rio Hondo College,3600 Workman Mill Rd,Kavya,Whittier,CA,90601-1616,,34.019878,Kavya,Kavya,7/6/2016 1:48,7/6/2016 1:48
121901,-117.38054,Riverside City College,4800 Magnolia Avenue,Kavya,Riverside,CA,92506,,33.971481,Kavya,Kavya,7/6/2016 1:48,7/6/2016 1:48
121983,-122.267523,Argosy University-San Francisco Bay Area,1005 Atlantic Avenue,Kavya,Alameda,CA,94501,,37.781238,Kavya,Kavya,7/6/2016 1:48,7/6/2016 1:48
121992,-118.082793,Rosemead Beauty School,8531 E Valley Blvd,Kavya,Rosemead,CA,91770-1639,,34.080756,Kavya,Kavya,7/6/2016 1:48,7/6/2016 1:48
122117,-118.289927,Dongguk University-Los Angeles,440 Shatto Pl,Kavya,Los Angeles,CA,90020-1704,,34.066226,Kavya,Kavya,7/6/2016 1:48,7/6/2016 1:48
122126,-121.28799,Rudolf Steiner College,9200 Fair Oaks Boulevard,Kavya,Fair Oaks,CA,95628-6811,,38.636493,Kavya,Kavya,7/6/2016 1:48,7/6/2016 1:48
122180,-121.49166,Sacramento City College,3835 Freeport Blvd,Kavya,Sacramento,CA,95822-1386,,38.541883,Kavya,Kavya,7/6/2016 1:48,7/6/2016 1:48
122205,-117.664876,Saddleback College,28000 Marguerite Pky,Kavya,Mission Viejo,CA,92692-3635,,33.551925,Kavya,Kavya,7/6/2016 1:48,7/6/2016 1:48
122296,-122.266854,Samuel Merritt University,3100 Telegraph Avenue,Kavya,Oakland,CA,94609,,37.819955,Kavya,Kavya,7/6/2016 1:48,7/6/2016 1:48
122320,-117.12114,San Diego Community College District-District Office,3375 Camino Del Rio S,Kavya,San Diego,CA,92108-3883,,32.776348,Kavya,Kavya,7/6/2016 1:48,7/6/2016 1:48
122339,-117.151641,San Diego City College,1313 Park Boulevard,Kavya,San Diego,CA,92101-4787,,32.718855,Kavya,Kavya,7/6/2016 1:48,7/6/2016 1:48
122366,-117.283394,Golf Academy of America-Carlsbad,"1950 Camino Vida Roble, Ste. 125",Kavya,Carlsbad,CA,92008,,33.12291,Kavya,Kavya,7/6/2016 1:48,7/6/2016 1:48
122375,-117.169072,San Diego Mesa College,7250 Mesa College Dr,Kavya,San Diego,CA,92111-4998,,32.804935,Kavya,Kavya,7/6/2016 1:48,7/6/2016 1:48
122384,-117.120888,San Diego Miramar College,10440 Black Mountain Rd,Kavya,San Diego,CA,92126-2999,,32.909546,Kavya,Kavya,7/6/2016 1:48,7/6/2016 1:48
122409,-117.071228,San Diego State University,5500 Campanile Dr,Kavya,San Diego,CA,92182,,32.77525,Kavya,Kavya,7/6/2016 1:48,7/6/2016 1:48
122436,-117.188721,University of San Diego,5998 Alcala Park,Kavya,San Diego,CA,92110-2492,,32.77142,Kavya,Kavya,7/6/2016 1:48,7/6/2016 1:48
122454,-122.417,San Francisco Art Institute,800 Chestnut St,Kavya,San Francisco,CA,94133-2299,,37.803575,Kavya,Kavya,7/6/2016 1:48,7/6/2016 1:48
122506,-122.420143,San Francisco Conservatory of Music,50 Oak Street,Kavya,San Francisco,CA,94102-6011,,37.775322,Kavya,Kavya,7/6/2016 1:48,7/6/2016 1:48
122597,-122.477905,San Francisco State University,1600 Holloway Ave,Kavya,San Francisco,CA,94132,,37.721345,Kavya,Kavya,7/6/2016 1:48,7/6/2016 1:48
122603,-122.564302,San Francisco Theological Seminary,105 Seminary Road,Kavya,San Anselmo,CA,94960-0000,,37.969594,Kavya,Kavya,7/6/2016 1:48,7/6/2016 1:48
122612,-122.450977,University of San Francisco,2130 Fulton St,Kavya,San Francisco,CA,94117-1080,,37.775564,Kavya,Kavya,7/6/2016 1:48,7/6/2016 1:48
122649,-119.6978,San Joaquin College of Law,901 Fifth St,Kavya,Clovis,CA,93612-1312,,36.823978,Kavya,Kavya,7/6/2016 1:48,7/6/2016 1:48
122658,-121.317226,San Joaquin Delta College,5151 Pacific Ave,Kavya,Stockton,CA,95207,,37.994643,Kavya,Kavya,7/6/2016 1:48,7/6/2016 1:48
122685,-119.384981,San Joaquin Valley College-Visalia,8344 W Mineral King Ave,Kavya,Visalia,CA,93291-9283,,36.328049,Kavya,Kavya,7/6/2016 1:48,7/6/2016 1:48
122728,-121.292312,William Jessup University,333 Sunset Blvd.,Kavya,Rocklin,CA,95765-3707,,38.819728,Kavya,Kavya,7/6/2016 1:48,7/6/2016 1:48
122737,-121.771202,San Jose-Evergreen Community College District,4750 San Felipe Rd,Kavya,San Jose,CA,95135-1599,,37.300847,Kavya,Kavya,7/6/2016 1:48,7/6/2016 1:48
122746,-121.929747,San Jose City College,2100 Moorpark Ave,Kavya,San Jose,CA,95128-2798,,37.316293,Kavya,Kavya,7/6/2016 1:48,7/6/2016 1:48
122755,-121.881214,San Jose State University,1 Washington Sq,Kavya,San Jose,CA,95192-0001,,37.335201,Kavya,Kavya,7/6/2016 1:48,7/6/2016 1:48
122782,-122.337603,San Mateo County Community College District Office,3401 CSM Drive,Kavya,San Mateo,CA,94402,,37.531184,Kavya,Kavya,7/6/2016 1:48,7/6/2016 1:48
122791,-122.336078,College of San Mateo,1700 W Hillsdale Blvd,Kavya,San Mateo,CA,94402-3784,,37.534357,Kavya,Kavya,7/6/2016 1:48,7/6/2016 1:48
122834,-119.061264,Santa Barbara Business College-Bakersfield,5300 California Avenue,Kavya,Bakersfield,CA,93309,,35.359544,Kavya,Kavya,7/6/2016 1:48,7/6/2016 1:48
122843,-118.293292,Westwood College-Los Angeles,3250 Wilshire Blvd Ste 400,Kavya,Los Angeles,CA,90010,,34.061397,Kavya,Kavya,7/6/2016 1:48,7/6/2016 1:48
122852,-119.699744,Santa Barbara Business College-Santa Maria,303 E Plaza Dr Ste 1,Kavya,Santa Maria,CA,93454,,34.403862,Kavya,Kavya,7/6/2016 1:48,7/6/2016 1:48
122889,-119.698045,Santa Barbara City College,721 Cliff Drive,Kavya,Santa Barbara,CA,93109-2394,,34.406788,Kavya,Kavya,7/6/2016 1:48,7/6/2016 1:48
122931,-121.938189,Santa Clara University,500 El Camino Real,Kavya,Santa Clara,CA,95053,,37.352706,Kavya,Kavya,7/6/2016 1:48,7/6/2016 1:48
122977,-118.470431,Santa Monica College,1900 Pico Blvd,Kavya,Santa Monica,CA,90405-1628,,34.018968,Kavya,Kavya,7/6/2016 1:48,7/6/2016 1:48
123013,-122.720689,Santa Rosa Junior College,1501 Mendocino Avenue,Kavya,Santa Rosa,CA,95401-4395,,38.45416,Kavya,Kavya,7/6/2016 1:48,7/6/2016 1:48
123095,-122.272255,Saybrook University,475 14th St,Kavya,Oakland,CA,94611-1943,,37.804741,Kavya,Kavya,7/6/2016 1:48,7/6/2016 1:48
123165,-117.711336,Scripps College,1030 North Columbia Avenue,Kavya,Claremont,CA,91711-3905,,34.103655,Kavya,Kavya,7/6/2016 1:48,7/6/2016 1:48
123208,-121.919395,Wyotech-Fremont,200 Whitney Place,Kavya,Fremont,CA,94539,,37.469279,Kavya,Kavya,7/6/2016 1:48,7/6/2016 1:48
123217,-119.314775,College of the Sequoias,915 S. Mooney Blvd,Kavya,Visalia,CA,93277-2214,,36.322957,Kavya,Kavya,7/6/2016 1:48,7/6/2016 1:48
123280,-122.315742,Shasta Bible College and Graduate School,2951 Goodwater Ave.,Kavya,Redding,CA,96002,,40.564208,Kavya,Kavya,7/6/2016 1:48,7/6/2016 1:48
123299,-122.317982,Shasta College,11555 Old Oregon Trail,Kavya,Redding,CA,96003,,40.625731,Kavya,Kavya,7/6/2016 1:48,7/6/2016 1:48
123341,-121.212646,Sierra College,5000 Rocklin Road,Kavya,Rocklin,CA,95677-3397,,38.792758,Kavya,Kavya,7/6/2016 1:48,7/6/2016 1:48
123350,-120.495668,Sierra College of Beauty,1340 W 18th St,Kavya,Merced,CA,95340,,37.306585,Kavya,Kavya,7/6/2016 1:48,7/6/2016 1:48
123396,-119.773017,Sierra Valley College of Court Reporting,4747 N First St Bldg D,Kavya,Fresno,CA,93726,,36.802756,Kavya,Kavya,7/6/2016 1:48,7/6/2016 1:48
123448,-117.852059,Trinity Law School,2200 N Grand Ave,Kavya,Santa Ana,CA,92705,,33.766071,Kavya,Kavya,7/6/2016 1:48,7/6/2016 1:48
123457,-122.333048,Simpson University,2211 College View Drive,Kavya,Redding,CA,96003-8606,,40.61331,Kavya,Kavya,7/6/2016 1:48,7/6/2016 1:48
123484,-122.389166,College of the Siskiyous,800 College Ave,Kavya,Weed,CA,96094-2899,,41.413848,Kavya,Kavya,7/6/2016 1:48,7/6/2016 1:48
123493,-121.44111,Charles A Jones Career and Education Center,5451 Lemon Hill Ave,Kavya,Sacramento,CA,95824-1529,,38.51651,Kavya,Kavya,7/6/2016 1:48,7/6/2016 1:48
123509,-122.465978,Skyline College,3300 College Dr,Kavya,San Bruno,CA,94066-1698,,37.630543,Kavya,Kavya,7/6/2016 1:48,7/6/2016 1:48
123527,-117.313814,San Bernardino Valley College,701 South Mount Vernon Avenue,Kavya,San Bernardino,CA,92410-2798,,34.088717,Kavya,Kavya,7/6/2016 1:48,7/6/2016 1:48
123554,-122.106795,Saint Mary's College of California,1928 Saint Marys Road,Kavya,Moraga,CA,94575,,37.83997,Kavya,Kavya,7/6/2016 1:48,7/6/2016 1:48
123563,-122.120232,Solano Community College,4000 Suisun Valley Rd,Kavya,Fairfield,CA,94534-3197,,38.235513,Kavya,Kavya,7/6/2016 1:48,7/6/2016 1:48
123572,-122.673261,Sonoma State University,1801 E Cotati Ave,Kavya,Rohnert Park,CA,94928-3609,,38.341023,Kavya,Kavya,7/6/2016 1:48,7/6/2016 1:48
123581,-118.150493,Pinnacle College,"1000 South Fremont Avenue, Bldg A-11, Ste 11010",Kavya,Alhambra,CA,91803,,34.081485,Kavya,Kavya,7/6/2016 1:48,7/6/2016 1:48
123633,-117.958663,South Baylo University,1126 N Brookhurst St,Kavya,Anaheim,CA,92801-1701,,33.847936,Kavya,Kavya,7/6/2016 1:48,7/6/2016 1:48
123642,-117.874109,South Coast College,2011 W. Chapman Avenue,Kavya,Orange,CA,92868-2609,,33.787946,Kavya,Kavya,7/6/2016 1:48,7/6/2016 1:48
123651,-117.900911,Vanguard University of Southern California,55 Fair Dr,Kavya,Costa Mesa,CA,92626,,33.662686,Kavya,Kavya,7/6/2016 1:48,7/6/2016 1:48
123679,-117.938395,Concorde Career College-Garden Grove,"12951 Euclid Street, Suite 101",Kavya,Garden Grove,CA,92840-9201,,33.774741,Kavya,Kavya,7/6/2016 1:48,7/6/2016 1:48
123800,-116.997215,Southwestern College,900 Otay Lakes Rd,Kavya,Chula Vista,CA,91910-7299,,32.641567,Kavya,Kavya,7/6/2016 1:48,7/6/2016 1:48
123855,-119.001395,St John's Seminary,5012 Seminary Rd,Kavya,Camarillo,CA,93012-2500,,34.244034,Kavya,Kavya,7/6/2016 1:48,7/6/2016 1:48
123916,-122.261778,Starr King School for Ministry,2441 Le Conte Avenue,Kavya,Berkeley,CA,94709-1209,,37.876939,Kavya,Kavya,7/6/2016 1:48,7/6/2016 1:48
123925,-119.792755,State Center Community College District,1525 E. Weldon Avenue,Kavya,Fresno,CA,93704,,36.768865,Kavya,Kavya,7/6/2016 1:48,7/6/2016 1:48
123943,-117.886158,Marshall B Ketchum University,2575 Yorba Linda Blvd,Kavya,Fullerton,CA,92831-1699,,33.889819,Kavya,Kavya,7/6/2016 1:48,7/6/2016 1:48
123952,-118.232703,Southern California Institute of Architecture,960 E. 3rd Street,Kavya,Los Angeles,CA,90013-1822,,34.04365,Kavya,Kavya,7/6/2016 1:48,7/6/2016 1:48
123961,-118.283858,University of Southern California,University Park,Kavya,Los Angeles,CA,90089,,34.021058,Kavya,Kavya,7/6/2016 1:48,7/6/2016 1:48
123970,-118.288375,Southwestern Law School,3050 Wilshire Boulevard,Kavya,Los Angeles,CA,90010-1106,,34.061558,Kavya,Kavya,7/6/2016 1:48,7/6/2016 1:48
124113,-119.459751,Taft College,29 Cougar Court,Kavya,Taft,CA,93268,,35.149343,Kavya,Kavya,7/6/2016 1:48,7/6/2016 1:48
124283,-117.715256,Claremont School of Theology,1325 N College Ave,Kavya,Claremont,CA,91711-3199,,34.107602,Kavya,Kavya,7/6/2016 1:48,7/6/2016 1:48
124292,-119.087141,Thomas Aquinas College,"10,000 Ojai Rd",Kavya,Santa Paula,CA,93060,,34.429009,Kavya,Kavya,7/6/2016 1:48,7/6/2016 1:48
124344,-117.704674,Marinello Schools of Beauty-Lake Forest,23635 El Toro Road Suite K,Kavya,Lake Forest,CA,92630,,33.61932,Kavya,Kavya,7/6/2016 1:48,7/6/2016 1:48
124487,-121.362311,Epic Bible College,4330 Auburn Boulevard,Kavya,Sacramento,CA,95841,,38.64491,Kavya,Kavya,7/6/2016 1:48,7/6/2016 1:48
124557,-122.27134,University of California-System Administration Central Office,1111 Franklin St,Kavya,Oakland,CA,94607-5200,,37.802222,Kavya,Kavya,7/6/2016 1:48,7/6/2016 1:48
124681,-118.226206,United Education Institute-Huntington Park Campus,6055 Pacific Boulevard,Kavya,Huntington Park,CA,90255,,33.986057,Kavya,Kavya,7/6/2016 1:48,7/6/2016 1:48
124706,-117.28398,Concorde Career College-San Bernardino,"201 East Airport Drive, Suite A",Kavya,San Bernardino,CA,92408-3403,,34.06722,Kavya,Kavya,7/6/2016 1:48,7/6/2016 1:48
124779,-118.292148,Universal College of Beauty Inc-Los Angeles 1,8619 S. Vermont Ave,Kavya,Los Angeles,CA,90044,,33.959435,Kavya,Kavya,7/6/2016 1:48,7/6/2016 1:48
124937,-118.403755,Concorde Career College-North Hollywood,12412 Victory Boulevard,Kavya,North Hollywood,CA,91606-3134,,34.186464,Kavya,Kavya,7/6/2016 1:48,7/6/2016 1:48
125019,-119.230607,Ventura County Community College System Office,"255 W. Stanley Ave., Suite 150",Kavya,Ventura,CA,93001,,34.277246,Kavya,Kavya,7/6/2016 1:48,7/6/2016 1:48
125028,-119.230659,Ventura College,4667 Telegraph Rd,Kavya,Ventura,CA,93003-3872,,34.277035,Kavya,Kavya,7/6/2016 1:48,7/6/2016 1:48
125037,-119.233149,The Santa Barbara and Ventura Colleges of Law-Ventura,4475 Market St,Kavya,Ventura,CA,93003,,34.257282,Kavya,Kavya,7/6/2016 1:48,7/6/2016 1:48
125082,-117.303918,Victor Valley Beauty College Inc,16515 Mojave Dr,Kavya,Victorville,CA,92395,,34.528578,Kavya,Kavya,7/6/2016 1:48,7/6/2016 1:48
125091,-117.261456,Victor Valley College,18422 Bear Valley Rd,Kavya,Victorville,CA,92395-5850,,34.472231,Kavya,Kavya,7/6/2016 1:48,7/6/2016 1:48
125170,-122.269793,Berkeley City College,2050 Center Sreet,Kavya,Berkeley,CA,94704,,37.87047,Kavya,Kavya,7/6/2016 1:48,7/6/2016 1:48
125222,-122.011079,West Valley Mission Community College District Office,14000 Fruitvale Ave,Kavya,Saratoga,CA,95070-5698,,37.262847,Kavya,Kavya,7/6/2016 1:48,7/6/2016 1:48
125231,-93.265731,Walden University,"100 Washington Avenue South, Suite 900",Kavya,Minneapolis,MN,55401,,44.98137,Kavya,Kavya,7/6/2016 1:48,7/6/2016 1:48
125310,-121.652311,Waynes College of Beauty,1271 North Main Street,Kavya,Salinas,CA,93906-2830,,36.70055,Kavya,Kavya,7/6/2016 1:48,7/6/2016 1:48
125462,-120.356747,West Hills College-Coalinga,300 Cherry Lane,Kavya,Coalinga,CA,93210,,36.147891,Kavya,Kavya,7/6/2016 1:48,7/6/2016 1:48
125471,-118.387578,West Los Angeles College,9000 Overland Avenue,Kavya,Culver City,CA,90230-3519,,34.005578,Kavya,Kavya,7/6/2016 1:48,7/6/2016 1:48
125499,-122.009701,West Valley College,14000 Fruitvale Ave,Kavya,Saratoga,CA,95070-5698,,37.263133,Kavya,Kavya,7/6/2016 1:48,7/6/2016 1:48
125532,-121.36892,Carrington College-Sacramento,8909 Folsom Blvd,Kavya,Sacramento,CA,95826,,38.561777,Kavya,Kavya,7/6/2016 1:48,7/6/2016 1:48
125718,-117.046371,Westminster Theological Seminary in California,1725 Bear Valley Parkway,Kavya,Escondido,CA,92027,,33.121447,Kavya,Kavya,7/6/2016 1:48,7/6/2016 1:48
125727,-119.661932,Westmont College,955 La Paz Rd,Kavya,Santa Barbara,CA,93108-1089,,34.449265,Kavya,Kavya,7/6/2016 1:48,7/6/2016 1:48
125763,-118.028402,Whittier College,13406 E Philadelphia Street,Kavya,Whittier,CA,90601,,33.977625,Kavya,Kavya,7/6/2016 1:48,7/6/2016 1:48
125897,-118.340692,Woodbury University,7500 Glenoaks Blvd,Kavya,Burbank,CA,91510-7846,,34.209226,Kavya,Kavya,7/6/2016 1:48,7/6/2016 1:48
126012,-122.253168,The Wright Institute,2728 Durant Ave,Kavya,Berkeley,CA,94704-1796,,37.868221,Kavya,Kavya,7/6/2016 1:48,7/6/2016 1:48
126030,-117.890274,Western State College of Law at Argosy University,1111 N State College Blvd,Kavya,Fullerton,CA,92831-3014,,33.880672,Kavya,Kavya,7/6/2016 1:48,7/6/2016 1:48
126049,-117.154191,Thomas Jefferson School of Law,1155 Island Avenue,Kavya,San Diego,CA,92101,,32.71013,Kavya,Kavya,7/6/2016 1:48,7/6/2016 1:48
126076,-118.346688,Yeshiva Ohr Elchonon Chabad West Coast Talmudical Seminary,7215 Waring Ave,Kavya,Los Angeles,CA,90046,,34.085494,Kavya,Kavya,7/6/2016 1:48,7/6/2016 1:48
126100,-121.040011,Yosemite Community College District Office,2201 Blue Gum Ave,Kavya,Modesto,CA,95358,,37.661041,Kavya,Kavya,7/6/2016 1:48,7/6/2016 1:48
126119,-121.539316,Yuba College,2088 N Beale Rd,Kavya,Marysville,CA,95901,,39.125995,Kavya,Kavya,7/6/2016 1:48,7/6/2016 1:48
126164,-108.564961,The Salon Professional Academy-Grand Junction,432 North Avenue,Kavya,Grand Junction,CO,81501,,39.07799,Kavya,Kavya,7/6/2016 1:48,7/6/2016 1:48
126182,-105.880943,Adams State University,208 Edgemont Blvd,Kavya,Alamosa,CO,81101,,37.477238,Kavya,Kavya,7/6/2016 1:48,7/6/2016 1:48
126207,-104.764335,Aims Community College,5401 W. 20th St.,Kavya,Greeley,CO,80632,,40.409037,Kavya,Kavya,7/6/2016 1:48,7/6/2016 1:48
126289,-105.018631,Arapahoe Community College,5900 S. Santa Fe Dr.,Kavya,Littleton,CO,80160-9002,,39.607505,Kavya,Kavya,7/6/2016 1:48,7/6/2016 1:48
126359,-104.875292,Bel-Rea Institute of Animal Technology,1681 S Dayton St,Kavya,Denver,CO,80247,,39.686066,Kavya,Kavya,7/6/2016 1:48,7/6/2016 1:48
126401,-104.740267,Everest College-Colorado Springs,1815 Jet Wing Drive,Kavya,Colorado Springs,CO,80916,,38.807095,Kavya,Kavya,7/6/2016 1:48,7/6/2016 1:48
126562,-104.999181,University of Colorado Denver,"1380 Lawrence Street, Lawrence Street Center, Suite 1400",Kavya,Denver,CO,80217-3364,,39.74603,Kavya,Kavya,7/6/2016 1:48,7/6/2016 1:48
126580,-104.800296,University of Colorado Colorado Springs,1420 Austin Bluffs Parkway,Kavya,Colorado Springs,CO,80918,,38.892735,Kavya,Kavya,7/6/2016 1:48,7/6/2016 1:48
126605,-105.119096,Redstone College,10851 W 120th Ave,Kavya,Broomfield,CO,80021-3465,,39.914822,Kavya,Kavya,7/6/2016 1:48,7/6/2016 1:48
126614,-105.267061,University of Colorado Boulder,Regent Drive at Broadway,Kavya,Boulder,CO,80309-0017,,40.004415,Kavya,Kavya,7/6/2016 1:48,7/6/2016 1:48
126669,-105.094836,Colorado Christian University,8787 West Alameda Avenue,Kavya,Lakewood,CO,80226,,39.711701,Kavya,Kavya,7/6/2016 1:48,7/6/2016 1:48
126678,-104.82422,Colorado College,14. E Cache La Poudre St.,Kavya,Colorado Springs,CO,80903,,38.84657,Kavya,Kavya,7/6/2016 1:48,7/6/2016 1:48
126687,-104.867089,Concorde Career College-Aurora,111 N. Havana Street,Kavya,Aurora,CO,80010-4314,,39.718699,Kavya,Kavya,7/6/2016 1:48,7/6/2016 1:48
126702,-104.985847,The Art Institute of Colorado,1200 Lincoln Street,Kavya,Denver,CO,80203-2983,,39.735587,Kavya,Kavya,7/6/2016 1:48,7/6/2016 1:48
126711,-107.324391,Colorado Mountain College,802 Grand Ave.,Kavya,Glenwood Springs,CO,81601-0233,,39.54636,Kavya,Kavya,7/6/2016 1:48,7/6/2016 1:48
126748,-108.790296,Colorado Northwestern Community College,500 Kennedy Drive,Kavya,Rangely,CO,81648-3598,,40.080745,Kavya,Kavya,7/6/2016 1:48,7/6/2016 1:48
126775,-105.227148,Colorado School of Mines,1500 Illinois St,Kavya,Golden,CO,80401,,39.75079,Kavya,Kavya,7/6/2016 1:48,7/6/2016 1:48
126784,-105.103945,Colorado School of Trades,1575 Hoyt St,Kavya,Lakewood,CO,80215-2996,,39.741009,Kavya,Kavya,7/6/2016 1:48,7/6/2016 1:48
126818,-105.08083,Colorado State University-Fort Collins,102 Administration Building,Kavya,Fort Collins,CO,80523-0100,,40.574759,Kavya,Kavya,7/6/2016 1:48,7/6/2016 1:48
126827,-104.833928,Colorado Technical University-Colorado Springs,4435 N Chestnut Street,Kavya,Colorado Springs,CO,80907-3812,,38.894265,Kavya,Kavya,7/6/2016 1:48,7/6/2016 1:48
126854,-105.082104,Empire Beauty School-Lakewood,441 Wadsworth Blvd,Kavya,Lakewood,CO,80226,,39.722781,Kavya,Kavya,7/6/2016 1:48,7/6/2016 1:48
126863,-104.801861,Community College of Aurora,16000 E CentreTech Pky,Kavya,Aurora,CO,80011-9036,,39.717767,Kavya,Kavya,7/6/2016 1:48,7/6/2016 1:48
126872,-104.94118,CollegeAmerica-Denver,"1385 S Colorado Blvd., 5th Floor",Kavya,Denver,CO,80222,,39.691571,Kavya,Kavya,7/6/2016 1:48,7/6/2016 1:48
126915,-108.031072,Delta Montrose Technical College,1765 US Hwy 50,Kavya,Delta,CO,81416,,38.702524,Kavya,Kavya,7/6/2016 1:48,7/6/2016 1:48
126924,-105.065051,Prince Institute-Rocky Mountains,"9051 Harlan Street, Unit 20",Kavya,Westminster,CO,80031-2901,,39.859891,Kavya,Kavya,7/6/2016 1:48,7/6/2016 1:48
126942,-105.003007,Community College of Denver,1111 W. Colfax Ave.,Kavya,Denver,CO,80204-2026,,39.74142,Kavya,Kavya,7/6/2016 1:48,7/6/2016 1:48
126951,-104.856171,Lincoln College of Technology-Denver,11194 E 45th Ave,Kavya,Denver,CO,80239,,39.77651,Kavya,Kavya,7/6/2016 1:48,7/6/2016 1:48
126979,-105.022363,Denver Seminary,6399 S. Santa Fe Drive,Kavya,Littleton,CO,80120,,39.600595,Kavya,Kavya,7/6/2016 1:48,7/6/2016 1:48
127024,-104.986386,Westwood College-Denver North,7350 N Broadway,Kavya,Denver,CO,80221,,39.830429,Kavya,Kavya,7/6/2016 1:48,7/6/2016 1:48
127060,-104.964625,University of Denver,2199 S. University Blvd,Kavya,Denver,CO,80208,,39.695954,Kavya,Kavya,7/6/2016 1:48,7/6/2016 1:48
127158,-104.986076,Emily Griffith Technical College,1860 Lincoln Street,Kavya,Denver,CO,80203,,39.745749,Kavya,Kavya,7/6/2016 1:48,7/6/2016 1:48
127185,-107.867003,Fort Lewis College,1000 Rim Drive,Kavya,Durango,CO,81301-3999,,37.275428,Kavya,Kavya,7/6/2016 1:48,7/6/2016 1:48
127200,-105.039359,Front Range Community College,3645 W 112th Ave,Kavya,Westminster,CO,80031,,39.901757,Kavya,Kavya,7/6/2016 1:48,7/6/2016 1:48
127219,-107.359099,Glenwood Beauty Academy,51241 Hwy 6 and 24 Ste 1,Kavya,Glenwood Springs,CO,81601,,39.561947,Kavya,Kavya,7/6/2016 1:48,7/6/2016 1:48
127228,-105.076492,Hair Dynamics Education Center,6464 S College,Kavya,Fort Collins,CO,80525,,40.497241,Kavya,Kavya,7/6/2016 1:48,7/6/2016 1:48
127273,-104.960647,Iliff School of Theology,2201 S University Blvd,Kavya,Denver,CO,80210-4798,,39.677461,Kavya,Kavya,7/6/2016 1:48,7/6/2016 1:48
127316,-104.786252,International Salon and Spa Academy,5707 N Academy Blvd,Kavya,Colorado Springs,CO,80918-3684,,38.913621,Kavya,Kavya,7/6/2016 1:48,7/6/2016 1:48
127389,-102.615612,Lamar Community College,2401 S Main St,Kavya,Lamar,CO,81052-3999,,38.058067,Kavya,Kavya,7/6/2016 1:48,7/6/2016 1:48
127556,-108.540281,Colorado Mesa University,1100 North Avenue,Kavya,Grand Junction,CO,81501-3122,,39.076354,Kavya,Kavya,7/6/2016 1:48,7/6/2016 1:48
127565,-105.002391,Metropolitan State University of Denver,Speer Blvd and Colfax Ave,Kavya,Denver,CO,80217-3362,,39.742248,Kavya,Kavya,7/6/2016 1:48,7/6/2016 1:48
127617,-103.771822,Morgan Community College,920 Barlow Road,Kavya,Fort  Morgan,CO,80701,,40.258792,Kavya,Kavya,7/6/2016 1:48,7/6/2016 1:48
127653,-105.267073,Naropa University,2130 Arapahoe Ave,Kavya,Boulder,CO,80302-6697,,40.014816,Kavya,Kavya,7/6/2016 1:48,7/6/2016 1:48
127680,-104.790571,National American University-Colorado Springs,"1915 Jamboree Drive,  Suite 185",Kavya,Colorado Springs,CO,80920,,38.95208,Kavya,Kavya,7/6/2016 1:48,7/6/2016 1:48
127699,-104.941649,National American University-Denver,"1325 S. Colorado Boulevard, Suite 100",Kavya,Denver,CO,80222-3308,,39.691953,Kavya,Kavya,7/6/2016 1:48,7/6/2016 1:48
127714,-104.751124,Nazarene Bible College,1111 Academy Park Loop,Kavya,Colorado Springs,CO,80910-3704,,38.814124,Kavya,Kavya,7/6/2016 1:48,7/6/2016 1:48
127732,-103.197536,Northeastern Junior College,100 College Avenue,Kavya,Sterling,CO,80751-2944,,40.636879,Kavya,Kavya,7/6/2016 1:48,7/6/2016 1:48
127741,-104.701721,University of Northern Colorado,Carter Hall - Rm 4000,Kavya,Greeley,CO,80639,,40.403178,Kavya,Kavya,7/6/2016 1:48,7/6/2016 1:48
127778,-103.544779,Otero Junior College,1802 Colorado Ave,Kavya,La Junta,CO,81050,,37.971184,Kavya,Kavya,7/6/2016 1:48,7/6/2016 1:48
127787,-104.985441,Everest College-Thornton,9065 Grant St,Kavya,Thornton,CO,80229,,39.86156,Kavya,Kavya,7/6/2016 1:48,7/6/2016 1:48
127820,-104.787261,Pikes Peak Community College,5675 S Academy Blvd,Kavya,Colorado Springs,CO,80906-5498,,38.764287,Kavya,Kavya,7/6/2016 1:48,7/6/2016 1:48
127839,-104.814201,Intellitec Medical Institute,"6805 Corporate Drive, Suite 100",Kavya,Colorado Springs,CO,80919,,38.93097,Kavya,Kavya,7/6/2016 1:48,7/6/2016 1:48
127884,-104.636396,Pueblo Community College,900 West Orman Avenue,Kavya,Pueblo,CO,81004-1499,,38.263458,Kavya,Kavya,7/6/2016 1:48,7/6/2016 1:48
127909,-105.150094,Red Rocks Community College,13300 W Sixth Ave,Kavya,Lakewood,CO,80228-1255,,39.720277,Kavya,Kavya,7/6/2016 1:48,7/6/2016 1:48
127918,-105.031385,Regis University,3333 Regis Blvd,Kavya,Denver,CO,80221-1099,,39.78976,Kavya,Kavya,7/6/2016 1:48,7/6/2016 1:48
127945,-105.069911,Rocky Mountain College of Art and Design,1600 Pierce St,Kavya,Lakewood,CO,80214,,39.74332,Kavya,Kavya,7/6/2016 1:48,7/6/2016 1:48
127954,-105.25311,Montessori Education Center of the Rockies,4745 Walnut Street,Kavya,Boulder,CO,80301,,39.96504,Kavya,Kavya,7/6/2016 1:48,7/6/2016 1:48
128106,-104.579846,Colorado State University-Pueblo,2200 Bonforte Blvd,Kavya,Pueblo,CO,81001-4901,,38.309219,Kavya,Kavya,7/6/2016 1:48,7/6/2016 1:48
128151,-104.78998,Pickens Technical College,500 Airport Blvd,Kavya,Aurora,CO,80011-9307,,39.723527,Kavya,Kavya,7/6/2016 1:48,7/6/2016 1:48
128179,-104.78721,Intellitec College-Colorado Springs,2315 East Pikes Peak Avenue,Kavya,Colorado Springs,CO,80909-6096,,38.832183,Kavya,Kavya,7/6/2016 1:48,7/6/2016 1:48
128188,-108.53062,Intellitec College-Grand Junction,772 Horizon Dr,Kavya,Grand Junction,CO,81506,,39.116346,Kavya,Kavya,7/6/2016 1:48,7/6/2016 1:48
128258,-104.512184,Trinidad State Junior College,600 Prospect St,Kavya,Trinidad,CO,81082,,37.172939,Kavya,Kavya,7/6/2016 1:48,7/6/2016 1:48
128300,-104.983277,University of Colorado System Office,1800 Grant Avenue,Kavya,Denver,CO,80203-1187,,39.74521,Kavya,Kavya,7/6/2016 1:48,7/6/2016 1:48
128328,-104.889893,United States Air Force Academy,"2304 Cadet Drive, Suite 3800",Kavya,USAFA,CO,80840-5002,,39.011115,Kavya,Kavya,7/6/2016 1:48,7/6/2016 1:48
128337,-104.943533,Empire Beauty School-Thornton,3811 E 120th Ave,Kavya,Thornton,CO,80233,,39.914863,Kavya,Kavya,7/6/2016 1:48,7/6/2016 1:48
128391,-106.91971,Western State Colorado University,600 N Adams,Kavya,Gunnison,CO,81231,,38.547421,Kavya,Kavya,7/6/2016 1:48,7/6/2016 1:48
128425,-105.043282,Yeshiva Toras Chaim Talmudical Seminary,1555 Stuart St,Kavya,Denver,CO,80204,,39.741781,Kavya,Kavya,7/6/2016 1:48,7/6/2016 1:48
128498,-72.923848,Albertus Magnus College,700 Prospect St,Kavya,New Haven,CT,06511-1189,,41.332519,Kavya,Kavya,7/6/2016 1:48,7/6/2016 1:48
128540,-73.451841,Paul Mitchell the School-Danbury,2 National Place,Kavya,Danbury,CT,6810,,41.39648,Kavya,Kavya,7/6/2016 1:48,7/6/2016 1:48
128577,-72.570177,Asnuntuck Community College,170 Elm St,Kavya,Enfield,CT,6082,,41.998409,Kavya,Kavya,7/6/2016 1:48,7/6/2016 1:48
128586,-73.534604,Bais Binyomin Academy,132 Prospect St,Kavya,Stamford,CT,6901,,41.059922,Kavya,Kavya,7/6/2016 1:48,7/6/2016 1:48
128674,-72.848201,Branford Hall Career Institute-Branford Campus,One Summit Place,Kavya,Branford,CT,6405,,41.278557,Kavya,Kavya,7/6/2016 1:48,7/6/2016 1:48
128683,-72.920217,Lincoln College of New England-Southington,2279 Mount Vernon Road,Kavya,Southington,CT,06489-1057,,41.632345,Kavya,Kavya,7/6/2016 1:48,7/6/2016 1:48
128726,-73.165185,Bridgeport Hospital School of Nursing,200 Mill Hill Ave,Kavya,Bridgeport,CT,6610,,41.189413,Kavya,Kavya,7/6/2016 1:48,7/6/2016 1:48
128744,-73.189352,University of Bridgeport,126 Park Avenue,Kavya,Bridgeport,CT,06604-5620,,41.165587,Kavya,Kavya,7/6/2016 1:48,7/6/2016 1:48
128771,-72.770094,Central Connecticut State University,1615 Stanley St,Kavya,New Britain,CT,6050,,41.690258,Kavya,Kavya,7/6/2016 1:48,7/6/2016 1:48
128780,-72.767972,Charter Oak State College,55 Paul Manafort Drive,Kavya,New Britain,CT,6053,,41.688246,Kavya,Kavya,7/6/2016 1:48,7/6/2016 1:48
128896,-72.710705,Connecticut Center for Massage Therapy-Newington,75 Kitts Lane,Kavya,Newington,CT,06111-3975,,41.685072,Kavya,Kavya,7/6/2016 1:48,7/6/2016 1:48
128902,-72.107321,Connecticut College,270 Mohegan Avenue,Kavya,New London,CT,06320-4196,,41.379833,Kavya,Kavya,7/6/2016 1:48,7/6/2016 1:48
